City_ID,City,Lat,Lng,Max Temp,Humidity,Cloudiness,Wind Speed,Country,Date
0,isafjordur,66.0755,-23.124,4.02,48,0,5.66,IS,1728132093
1,bethel,41.3712,-73.414,16.48,84,0,0.89,US,1728132094
2,port-aux-francais,-49.35,70.2167,1.3,93,100,4.63,TF,1728132095
3,ghadamis,30.1337,9.5007,32.65,21,97,4.3,LY,1728132097
4,hadibu,12.65,54.0333,28.27,74,52,3.14,YE,1728132098
5,togur,58.3631,82.8265,7.76,76,100,2.04,RU,1728132099
6,sitangkai,4.6628,119.3928,28.81,71,0,2.34,PH,1728132100
7,saipan,15.1355,145.701,27.39,83,40,4.12,MP,1728132101
8,edinburgh of the seven seas,-37.0676,-12.3116,11.72,88,100,10.15,SH,1728132102
9,stanley,54.868,-1.6985,14.01,74,20,5.14,GB,1728132103
10,daulatpur,26.5015,67.9706,37.04,19,0,4.43,PK,1728132104
11,ushuaia,-54.8,-68.3,5.81,70,40,7.2,AR,1728131823
12,graneros,-34.0667,-70.7333,15.1,63,0,0.0,CL,1728132106
13,wad medani,14.4012,33.5199,38.18,25,7,1.69,SD,1728132107
14,constantia,44.1833,28.65,27.61,65,100,5.9,RO,1728132108
15,pytalovo,57.0679,27.9138,12.14,55,0,1.38,RU,1728132110
16,christchurch,-43.5333,172.6333,8.86,91,50,1.03,NZ,1728132046
17,margate,51.3813,1.3862,16.6,63,0,0.45,GB,1728132112
18,ola,59.5833,151.2833,2.93,71,88,1.26,RU,1728132113
19,howrah,22.5892,88.3103,29.47,72,99,0.63,IN,1728132114
20,grytviken,-54.2811,-36.5092,0.24,82,79,8.1,GS,1728132115
21,codrington,-38.2667,141.9667,12.24,81,100,9.02,AU,1728132116
22,puerto natales,-51.7236,-72.4875,7.25,53,75,9.77,CL,1728132117
23,orange cove,36.6244,-119.3137,20.38,67,40,2.06,US,1728132118
24,puerto baquerizo moreno,-0.9,-89.6,21.15,89,98,4.85,EC,1728132119
25,lerwick,60.1545,-1.1494,11.82,93,100,5.62,GB,1728132120
26,waitangi,-43.9535,-176.5597,11.57,99,87,0.89,NZ,1728132121
27,strezhevoy,60.7333,77.5889,3.22,87,100,2.27,RU,1728132122
28,dakhla,23.6848,-15.958,25.01,69,100,7.2,EH,1728132124
29,obihiro,42.9172,143.2044,11.66,85,52,1.13,JP,1728132125
30,adamstown,-25.066,-130.1015,21.6,90,11,8.18,PN,1728132126
31,dwarka,22.2394,68.9678,28.28,71,58,4.95,IN,1728132127
32,pierre,44.3683,-100.351,19.6,45,0,5.66,US,1728132128
33,tsiombe,-25.3,45.4833,21.99,50,0,6.32,MG,1728132129
34,yuzhno-kurilsk,44.0306,145.8556,11.51,86,0,2.26,RU,1728132130
35,lebu,-37.6167,-73.65,10.83,79,79,3.76,CL,1728132131
36,arraial do cabo,-22.9661,-42.0278,23.92,50,40,4.12,BR,1728132132
37,saint-mandrier-sur-mer,43.078,5.929,20.92,61,0,4.63,FR,1728132133
38,neiafu,-18.65,-173.9833,24.38,73,20,4.12,TO,1728132134
39,iqaluit,63.7506,-68.5145,1.85,87,75,1.54,CA,1728132135
40,hithadhoo,-0.6,73.0833,27.76,77,100,10.21,MV,1728132073
41,albany,42.6001,-73.9662,14.23,80,2,3.1,US,1728131727
42,malvan,16.0667,73.4667,27.73,80,5,4.15,IN,1728132139
43,karabash,55.4808,60.2157,9.69,50,100,1.31,RU,1728132140
44,lihue,21.9789,-159.3672,23.77,89,75,2.06,US,1728132141
45,san francisco de los romo,22.0833,-102.2667,13.81,70,33,3.72,MX,1728132142
46,chernyshevskiy,63.0128,112.4714,-0.24,94,100,3.28,RU,1728132143
47,vorkuta,67.5,64.0,0.15,69,100,6.43,RU,1728132144
48,st. john's,47.5649,-52.7093,12.93,96,100,3.6,CA,1728131929
49,margaret river,-33.95,115.0667,15.27,82,100,3.93,AU,1728132146
50,linfen,36.0889,111.5189,19.59,33,100,4.45,CN,1728131897
51,hermanus,-34.4187,19.2345,20.7,72,19,2.2,ZA,1728132148
52,ad dilam,23.9915,47.1627,36.97,18,0,2.36,SA,1728132035
53,wongsorejo,-7.9908,114.4009,25.37,88,73,5.0,ID,1728132150
54,port elizabeth,-33.918,25.5701,37.16,16,0,4.63,ZA,1728132152
55,areia branca,-4.9561,-37.1369,30.47,52,0,5.85,BR,1728132153
56,talnakh,69.4865,88.3972,-4.41,84,95,2.77,RU,1728132154
57,castillos,-34.1667,-53.8333,18.22,63,16,2.43,UY,1728132155
58,puerto ayora,-0.7393,-90.3518,20.86,97,52,0.89,EC,1728132156
59,shalqar,47.8333,59.6,21.09,22,0,1.36,KZ,1728132157
60,new norfolk,-42.7826,147.0587,8.84,88,100,1.43,AU,1728132158
61,at taj,24.2049,23.2857,34.46,11,0,2.84,LY,1728132159
62,nar'yan-mar,67.6713,53.087,1.21,97,100,5.0,RU,1728132160
63,sinabang,2.4803,96.3801,24.31,94,100,3.17,ID,1728132161
64,itoman,26.1247,127.6694,28.01,83,40,4.12,JP,1728132165
65,west island,-12.1568,96.8225,26.99,83,20,4.63,CC,1728132166
66,tolanaro,-25.0319,46.9987,23.04,56,40,5.14,MG,1728132167
67,atherton,53.5237,-2.4935,16.61,67,21,2.68,GB,1728132168
68,blackmans bay,-43.0167,147.3167,10.07,76,100,2.91,AU,1728132169
69,stettler,52.3168,-112.7186,5.78,67,97,8.71,CA,1728132171
70,olonkinbyen,70.9221,-8.7187,-1.13,67,100,3.84,SJ,1728132173
71,enriquillo,17.9,-71.2333,28.52,70,0,1.33,DO,1728132174
72,powell river,49.8496,-124.5361,10.15,85,88,1.59,CA,1728132175
73,petropavlovsk-kamchatsky,53.0452,158.6483,3.33,65,0,1.0,RU,1728132177
74,sao jose da coroa grande,-8.8978,-35.1478,26.97,63,72,4.15,BR,1728132178
75,howard springs,-12.497,131.047,29.95,81,37,2.9,AU,1728132179
76,cabo san lucas,22.8909,-109.9124,25.42,69,0,3.24,MX,1728132180
77,cedeira,43.6797,-8.0209,20.54,1,100,10.17,ES,1728132181
78,wittichenau,51.385,14.244,11.65,77,100,2.58,DE,1728132182
79,mentor-on-the-lake,41.705,-81.3604,14.54,79,0,2.06,US,1728132183
80,turpan,42.9333,89.1667,21.98,24,0,0.89,CN,1728132185
81,tiksi,71.6872,128.8694,-10.05,96,98,2.61,RU,1728131888
82,bairnsdale,-37.8333,147.6167,12.25,95,100,0.8,AU,1728132188
83,el granada,37.5027,-122.4694,23.68,48,20,0.0,US,1728132189
84,utrik,11.2278,169.8474,27.42,79,100,3.97,MH,1728132190
85,ciudad insurgentes,25.2625,-111.7753,19.61,92,0,2.19,MX,1728132191
86,al khaburah,23.9886,57.0984,32.32,57,0,8.22,OM,1728132192
87,san pedro,14.35,121.0167,29.62,81,75,3.13,PH,1728132193
88,aras-asan,8.8908,126.3033,26.17,87,100,0.87,PH,1728132194
89,ulsan,35.5372,129.3167,17.13,81,73,2.22,KR,1728132195
90,ilulissat,69.2167,-51.1,2.01,75,0,1.03,GL,1728132196
91,thunder bay,48.4001,-89.3168,-1.01,93,20,0.51,CA,1728132162
92,karaj,35.8355,51.0103,21.88,31,20,4.12,IR,1728132198
93,bengkulu,-3.8004,102.2655,25.37,89,100,1.55,ID,1728132199
94,alesund,62.4723,6.1549,9.08,87,75,6.17,NO,1728132201
95,yellowknife,62.456,-114.3525,-0.4,95,75,1.54,CA,1728132202
96,wewak,-3.5534,143.6268,26.56,84,100,2.66,PG,1728132203
97,carutapera,-1.195,-46.02,30.09,61,8,4.36,BR,1728132204
98,ballina,-28.8667,153.5667,19.39,79,1,4.62,AU,1728132205
99,granby,45.4001,-72.7324,12.8,100,7,0.51,CA,1728132024
100,port mathurin,-19.6833,63.4167,22.78,86,20,10.61,MU,1728132207
101,tadine,-21.55,167.8833,19.36,78,1,4.16,NC,1728132208
102,jagatsinghapur,20.2667,86.1667,27.68,76,99,2.53,IN,1728132209
103,ribeira grande,38.5167,-28.7,24.32,69,40,6.17,PT,1728132210
104,perry,37.2506,-83.1999,17.3,80,0,0.78,US,1728132211
105,nova sintra,14.8667,-24.7167,26.84,75,99,1.7,CV,1728132212
106,primero de mayo,-32.2552,-58.4228,18.23,47,6,4.04,AR,1728132214
107,invercargill,-46.4,168.35,8.9,96,54,2.32,NZ,1728132215
108,novyy urengoy,66.0833,76.6333,-0.33,66,57,2.0,RU,1728132216
109,nemuro,43.3236,145.575,14.4,75,1,4.22,JP,1728132217
110,tazovsky,67.4667,78.7,-0.9,68,57,4.3,RU,1728132218
111,kingston,17.997,-76.7936,28.53,84,20,2.06,JM,1728132108
112,bathsheba,13.2167,-59.5167,30.34,74,40,1.54,BB,1728132220
113,enewetak,11.3474,162.3373,28.56,75,100,3.61,MH,1728132221
114,rengasdengklok,-6.1592,107.2981,27.68,74,23,1.52,ID,1728132223
115,college,64.8569,-147.8028,0.97,72,0,2.06,US,1728132224
116,copala,16.65,-98.9833,23.3,90,100,2.51,MX,1728132226
117,bilibino,68.0546,166.4372,-7.44,98,100,2.23,RU,1728132227
118,gantang,26.92,119.6333,21.76,94,99,1.18,CN,1728132228
119,chonchi,-42.6128,-73.8092,8.95,87,0,1.53,CL,1728132229
120,ylitornio,66.3089,23.6773,6.95,52,9,2.08,FI,1728132230
121,viedma,-40.8135,-62.9967,14.56,33,100,5.31,AR,1728132140
122,aitape,-3.1374,142.3475,25.51,89,100,2.0,PG,1728132232
123,lethbridge,49.7,-112.8186,10.06,46,0,10.29,CA,1728131979
124,dukku,10.8231,10.7717,29.25,58,79,3.09,NG,1728132234
125,susuman,62.7833,148.1667,-8.59,92,99,0.06,RU,1728132235
126,saint-pierre,-21.3393,55.4781,23.82,53,0,8.23,RE,1728132171
127,qaqortoq,60.7167,-46.0333,5.55,49,0,1.17,GL,1728132237
128,urzhar,47.093,81.6294,16.26,26,0,5.52,KZ,1728132239
129,sinor,21.9167,73.3333,28.26,69,27,1.03,IN,1728132240
130,khandyga,62.6667,135.6,0.61,99,100,0.82,RU,1728132241
131,lompoc,34.6391,-120.4579,14.4,96,100,0.0,US,1728132242
132,badger,64.8,-147.5333,2.95,65,0,3.09,US,1728132243
133,puerto san jose,13.9256,-90.8244,24.03,94,0,0.0,GT,1728132244
134,east london,-33.0153,27.9116,29.52,45,0,3.6,ZA,1728132245
135,balykshi,47.0667,51.8667,25.0,19,0,3.0,KZ,1728132246
136,faya-largeau,17.9257,19.1043,40.91,12,100,4.15,TD,1728132247
137,bredasdorp,-34.5322,20.0403,28.62,37,43,5.88,ZA,1728132248
138,dubove,48.1721,23.8895,15.32,95,100,1.6,UA,1728131993
139,sadjoavato,-12.6334,49.349,26.34,52,49,5.46,MG,1728132251
140,cape girardeau,37.3834,-89.7168,12.77,82,0,1.52,US,1728132056
141,namibe,-15.1961,12.1522,24.32,65,19,6.74,AO,1728132253
142,afaahiti,-17.75,-149.2833,22.71,81,100,9.99,PF,1728132254
143,broome,42.2506,-75.833,11.93,97,0,0.89,US,1728132255
144,anadyr,64.75,177.4833,0.28,93,75,3.0,RU,1728132256
145,ugoofaaru,5.6667,73.0,28.1,77,100,5.6,MV,1728132257
146,bambari,5.768,20.6757,28.77,71,100,0.5,CF,1728132258
147,thompson,55.7435,-97.8558,2.09,80,100,3.6,CA,1728132230
148,jamestown,42.097,-79.2353,12.23,100,0,0.45,US,1728132229
149,sitka,57.0531,-135.33,8.94,81,100,5.66,US,1728132261
150,barda,40.3744,47.1267,25.6,38,0,2.22,AZ,1728132262
151,avarua,-21.2078,-159.775,22.03,68,75,4.63,CK,1728132263
152,whitehorse,60.7161,-135.0538,4.43,70,100,6.17,CA,1728132265
153,longyearbyen,78.2186,15.6401,-3.09,68,20,6.69,SJ,1728132266
154,ketchikan,55.3422,-131.6461,9.32,93,100,7.72,US,1728132267
155,egilsstadir,65.2653,-14.3948,2.95,75,75,6.69,IS,1728132268
156,atafu village,-8.5421,-172.5159,28.07,74,86,5.15,TK,1728132269
157,georgetown,5.4112,100.3354,26.96,93,40,2.24,MY,1728132180
158,lautoka,-17.6167,177.4667,23.92,83,20,2.57,FJ,1728132271
159,weno,7.4515,151.8468,28.84,74,94,3.01,FM,1728132272
160,zavodoukovsk,56.5042,66.5515,10.64,38,100,2.87,RU,1728132273
161,bouza,14.4229,6.0428,29.57,49,100,5.85,NE,1728132274
162,rongelap,11.1635,166.8941,27.29,78,100,4.47,MH,1728132275
163,iskateley,67.6803,53.1512,1.22,97,100,5.04,RU,1728132276
164,machico,32.7,-16.7667,28.89,81,4,3.0,PT,1728132278
165,uturoa,-16.7333,-151.4333,25.07,79,95,11.86,PF,1728132279
166,amga,60.8953,131.9608,0.64,96,100,1.07,RU,1728132280
167,hasaki,35.7333,140.8333,21.81,77,100,6.09,JP,1728132281
168,wailua homesteads,22.0669,-159.378,23.44,89,75,2.06,US,1728132282
169,kone,-21.0595,164.8658,19.02,81,11,2.21,NC,1728132283
170,tekman,39.6436,41.5078,17.95,26,0,1.72,TR,1728132284
171,udachny,66.4167,112.4,-1.55,88,98,3.22,RU,1728132285
172,muromtsevo,56.3724,75.2418,8.85,48,5,2.26,RU,1728132286
173,okhotsk,59.3833,143.3,4.44,66,100,1.42,RU,1728132288
174,coahuayana de hidalgo,18.7,-103.6583,24.33,95,85,0.9,MX,1728132289
175,labrador city,52.9463,-66.9114,6.77,71,75,4.92,CA,1728132290
176,presque isle,46.6811,-68.0159,14.24,90,100,3.09,US,1728132292
177,south hedland,-20.4089,118.5983,24.96,73,100,3.09,AU,1728132293
178,turbat,26.0023,63.044,35.83,36,0,8.09,PK,1728132294
179,nelsonville,39.4587,-82.2318,10.15,80,0,2.68,US,1728131997
180,lazaro cardenas,17.9583,-102.2,25.13,90,100,1.14,MX,1728132296
181,port augusta,-32.5,137.7667,13.74,72,0,2.39,AU,1728132298
182,sokoni,-6.4333,39.55,25.55,78,44,8.92,TZ,1728132299
183,puerto deseado,-47.7503,-65.8938,8.15,51,52,3.02,AR,1728132218
184,touros,-5.1989,-35.4608,27.81,65,80,6.43,BR,1728132301
185,palikir - national government center,6.9248,158.1611,24.47,94,40,2.06,FM,1728132303
186,galiakot,23.5167,74.0,28.41,65,5,2.79,IN,1728132304
187,papatowai,-46.5619,169.4708,7.87,96,49,2.82,NZ,1728132305
188,jieshou,33.2634,115.3611,19.45,58,100,2.79,CN,1728132306
189,chibougamau,49.9168,-74.3659,5.79,93,100,0.0,CA,1728132307
190,port saint john's,-31.6229,29.5448,27.58,47,0,7.36,ZA,1728132308
191,kapa'a,22.0752,-159.319,24.18,85,75,2.06,US,1728132310
192,hobart,-42.8794,147.3294,10.92,76,100,2.57,AU,1728132227
193,simplicio mendes,-7.8539,-41.9103,34.73,27,8,3.68,BR,1728132312
194,klyuchi,52.2667,79.1667,12.08,38,1,2.87,RU,1728132313
195,luderitz,-26.6481,15.1594,27.05,39,3,5.84,NA,1728132315
196,dudinka,69.4058,86.1778,-2.22,95,98,5.05,RU,1728132316
197,port lincoln,-34.7333,135.8667,15.09,81,100,9.09,AU,1728132317
198,saldanha,-33.0117,17.9442,37.03,43,17,3.21,ZA,1728132318
199,salinopolis,-0.6136,-47.3561,28.73,68,13,5.62,BR,1728132320
200,datia,25.6667,78.4667,29.17,59,0,3.33,IN,1728132321
201,taoudenni,22.6783,-3.9836,41.84,9,3,2.8,ML,1728132322
202,yeppoon,-23.1333,150.7333,18.56,73,0,3.16,AU,1728132323
203,fisterra,42.9049,-9.2629,18.12,99,100,8.35,ES,1728132324
204,akureyri,65.6835,-18.0878,1.96,64,20,3.6,IS,1728132325
205,hilo,19.7297,-155.09,21.85,94,75,2.06,US,1728132326
206,al mahwit,15.4701,43.5448,22.46,45,12,4.42,YE,1728132327
207,galliano,29.4422,-90.2992,24.0,88,100,3.09,US,1728132328
208,punta arenas,-53.15,-70.9167,6.06,65,40,9.26,CL,1728132071
209,saudarkrokur,65.7461,-19.6394,4.07,49,1,1.43,IS,1728132330
210,taikang,46.8333,124.4167,11.46,49,95,2.98,CN,1728132333
211,crane,31.3974,-102.3501,19.11,53,0,1.54,US,1728132334
212,santa ana,33.7456,-117.8678,19.09,91,100,1.54,US,1728132335
213,labytnangi,66.6572,66.4183,1.1,71,100,5.01,RU,1728132337
214,al kharj,24.155,47.3346,37.32,16,0,1.06,SA,1728132338
215,rouissat,31.9243,5.3502,32.04,25,0,0.0,DZ,1728132339
216,fort bragg,35.139,-79.006,19.95,94,0,0.0,US,1728132340
217,geraldton,-28.7667,114.6,16.23,88,100,2.57,AU,1728132341
218,hamilton,39.1834,-84.5333,16.11,91,0,0.89,US,1728132313
219,kayangel,8.0823,134.7173,28.54,76,61,4.27,PW,1728132343
220,nabire,-3.3667,135.4833,24.58,93,98,1.83,ID,1728132344
221,sao joao da barra,-21.6403,-41.0511,24.05,62,100,7.25,BR,1728132060
222,sarina,-21.4333,149.2167,19.78,1,0,2.1,AU,1728132346
223,zhob,31.3411,69.4481,29.25,9,36,7.46,PK,1728132248
224,ancud,-41.8697,-73.8203,8.01,74,0,2.46,CL,1728132349
225,solnechnyy,50.7214,136.6319,13.28,62,100,3.57,RU,1728132350
226,la leonesa,-27.0379,-58.7035,28.38,37,1,2.78,AR,1728132351
227,antsiranana,-12.2787,49.2917,29.42,48,20,5.14,MG,1728132353
228,otofuke,42.9917,143.2003,11.0,83,34,0.9,JP,1728132354
229,guiuan,11.0333,125.7247,27.29,80,100,1.47,PH,1728132355
230,urucara,-2.5364,-57.76,34.57,40,56,1.62,BR,1728132356
231,tibati,6.4667,12.6333,22.33,85,100,0.8,CM,1728132357
232,ad-damazin,11.7891,34.3592,30.95,54,92,0.26,SD,1728132358
233,madinat ash shamal,26.1293,51.2009,30.89,54,0,9.24,QA,1728132359
234,port alfred,-33.5906,26.891,26.21,60,2,1.79,ZA,1728132360
235,kavieng,-2.5744,150.7967,28.47,78,99,6.24,PG,1728132362
236,lata,40.1629,-8.3327,24.16,73,100,3.61,PT,1728132364
237,masjed soleyman,31.9364,49.3039,34.2,12,0,3.47,IR,1728132365
238,andergrove,-21.0833,149.1833,20.62,73,0,2.1,AU,1728132366
239,akrehamn,59.2667,5.1833,14.14,72,75,8.23,NO,1728132368
240,zeya,53.75,127.2667,0.71,75,2,2.31,RU,1728132369
241,kramfors,62.9316,17.7765,7.89,71,100,2.06,SE,1728132370
242,janauba,-15.8025,-43.3089,32.85,30,0,4.74,BR,1728132114
243,antigua,14.5611,-90.7344,17.6,96,100,1.43,GT,1728132373
244,ushtobe,45.2514,77.9838,19.46,18,100,4.21,KZ,1728132374
245,ilha de mocambique,-15.0342,40.7358,25.05,71,10,9.44,MZ,1728132357
246,happy valley-goose bay,53.3168,-60.3315,7.17,76,40,3.09,CA,1728132376
247,lima,-12.0432,-77.0282,17.72,87,93,3.09,PE,1728131977
248,waiuku,-37.25,174.75,14.81,89,37,3.42,NZ,1728132378
249,aoulef,26.9667,1.0833,42.07,8,2,6.59,DZ,1728132379
250,sechura,-5.5569,-80.8222,19.62,80,100,1.76,PE,1728132380
251,hobyo,5.3505,48.5268,26.57,76,97,11.38,SO,1728132381
252,vorgashor,67.5833,63.95,-0.09,69,100,6.37,RU,1728132382
253,kilju,40.9642,129.3278,11.75,82,0,1.8,KP,1728132383
254,berezovyy,51.6667,135.7,12.62,75,100,3.08,RU,1728132385
255,palangkaraya,-2.2,113.8333,26.66,77,100,1.22,ID,1728132386
256,rajula,21.05,71.4333,26.82,79,10,4.17,IN,1728132387
257,santana,-0.0583,-51.1817,30.1,79,75,4.12,BR,1728132388
258,mugia,43.1041,-9.2179,21.62,98,100,9.5,ES,1728132389
259,dauphin,51.1494,-100.0502,15.08,55,100,5.66,CA,1728132376
260,altud,43.7219,43.8658,24.25,25,0,4.01,RU,1728132391
261,vega de alatorre,20.0333,-96.6333,25.44,67,100,2.5,MX,1728132392
262,vila velha,-20.3297,-40.2925,22.97,84,75,7.2,BR,1728132393
263,senador guiomard,-10.1522,-67.7392,30.63,46,100,1.62,BR,1728132394
264,miri,4.4148,114.0089,26.08,100,40,0.0,MY,1728132395
265,charlotte amalie,18.3419,-64.9307,28.85,84,0,3.36,VI,1728132155
266,port hedland,-20.3167,118.5667,25.03,73,100,3.09,AU,1728132398
267,moree,-29.4667,149.85,17.52,42,5,3.83,AU,1728132399
268,yanam,16.7333,82.2167,24.14,96,16,1.83,IN,1728132400
269,cidreira,-30.1811,-50.2056,19.42,73,4,7.53,BR,1728132401
270,hayvoron,48.3396,29.8679,24.46,56,100,3.9,UA,1728132402
271,sandnessjoen,66.0217,12.6316,7.06,76,75,3.09,NO,1728132403
272,ronne,55.1009,14.7066,14.95,55,20,2.57,DK,1728132404
273,mingguang,32.7802,117.9638,19.26,75,100,2.74,CN,1728132405
274,arar,30.9753,41.0381,34.01,15,0,0.0,SA,1728132406
275,kerrville,30.0474,-99.1403,19.74,72,75,1.54,US,1728132407
276,brigantine,39.4101,-74.3646,18.34,94,100,3.6,US,1728132408
277,aasiaat,68.7098,-52.8699,1.6,86,0,2.01,GL,1728132410
278,knysna,-34.0363,23.0471,30.63,27,100,1.9,ZA,1728132411
279,kapuskasing,49.4169,-82.4331,2.0,93,40,3.6,CA,1728132136
280,barra de santo antonio,-9.4047,-35.5072,25.41,68,67,3.78,BR,1728132413
281,sisimiut,66.9395,-53.6735,3.01,76,3,1.58,GL,1728132414
282,nova vicosa,-17.8919,-39.3719,24.64,83,93,6.7,BR,1728132415
283,prokop'yevsk,53.9059,86.719,7.8,64,75,1.72,RU,1728132416
284,arteche,12.2645,125.4048,24.73,94,100,1.5,PH,1728132417
285,minas de marcona,-15.2119,-75.1103,18.32,59,82,1.1,PE,1728132418
286,bage,-31.3314,-54.1069,15.88,82,0,3.09,BR,1728132419
287,morehead city,34.7229,-76.726,21.13,88,0,2.06,US,1728132165
288,richards bay,-28.783,32.0377,26.52,39,0,6.15,ZA,1728132421
289,rice lake,45.5061,-91.7382,7.92,69,40,4.12,US,1728132423
290,turuntayevo,52.2,107.6167,1.83,64,32,0.55,RU,1728132424
291,porto velho,-8.7619,-63.9039,27.03,78,97,2.06,BR,1728132310
292,biltine,14.5333,20.9167,36.89,18,10,3.14,TD,1728132426
293,tura,25.5198,90.2201,22.92,98,100,2.13,IN,1728132427
294,juneau,58.3019,-134.4197,8.0,95,100,9.77,US,1728132309
295,cold springs,39.6802,-119.9766,12.95,47,0,2.57,US,1728132429
296,camaqua,-30.8511,-51.8122,20.32,66,4,1.87,BR,1728132431
297,iwaki,37.05,140.8833,18.93,87,100,2.15,JP,1728132432
298,pemangkat,1.1667,108.9667,27.65,76,95,3.21,ID,1728132433
299,bodo,67.28,14.405,7.47,79,75,2.57,NO,1728132435
300,redencao,-4.2258,-38.7306,31.99,42,13,3.4,BR,1728132436
301,san nicolas de bari,22.7844,-81.9133,26.42,89,100,2.61,CU,1728132438
302,center,31.5107,-96.4247,20.22,77,40,1.54,US,1728132439
303,san patricio,28.017,-97.5169,24.97,91,4,4.16,US,1728132440
304,ust-nera,64.5667,143.2,-4.02,94,95,1.31,RU,1728132441
305,serenje,-13.2325,30.2352,23.8,26,40,4.47,ZM,1728132443
306,camarinas,43.1311,-9.1817,21.63,98,100,9.79,ES,1728132444
307,kodiak,57.79,-152.4072,5.73,81,100,0.0,US,1728132446
308,portland,45.5234,-122.6762,12.12,95,100,0.89,US,1728132153
309,duncan,34.5023,-97.9578,15.21,82,0,0.0,US,1728132448
310,cayeli,41.0923,40.7292,24.27,53,0,1.83,TR,1728132449
311,rangia,26.4667,91.6333,23.33,98,91,4.53,IN,1728132450
312,mount gambier,-37.8333,140.7667,12.03,95,100,7.43,AU,1728132451
313,valparaiso,-33.0393,-71.6273,16.67,71,0,0.0,CL,1728132216
314,sungai penuh,-2.0833,101.3833,19.42,98,100,0.82,ID,1728132453
315,las heras,-46.5419,-68.9359,8.79,44,0,5.32,AR,1728132454
316,vilyuchinsk,52.9306,158.4028,4.15,74,100,1.14,RU,1728132455
317,ahoada,5.074,6.6535,25.44,88,100,1.21,NG,1728132456
318,remire-montjoly,4.9167,-52.2667,30.02,70,75,4.12,GF,1728132457
319,sai buri,6.7013,101.6168,25.31,88,100,0.52,TH,1728132459
320,thal,35.4791,72.2439,10.89,73,95,2.06,PK,1728132460
321,shahr-e babak,30.1165,55.1186,28.26,14,17,6.38,IR,1728132443
322,fale old settlement,-9.3852,-171.2468,27.56,76,78,4.53,TK,1728132462
323,haapsalu,58.9431,23.5414,14.45,70,51,4.38,EE,1728132463
324,tual,-5.6667,132.75,27.44,80,88,9.25,ID,1728132464
325,ilhabela,-23.7781,-45.3581,20.73,85,85,3.15,BR,1728132465
326,midvagur,62.0511,-7.1939,9.46,81,100,8.23,FO,1728132466
327,moyynkum,44.2914,72.9469,22.78,25,100,3.56,KZ,1728132467
328,broken hill,-31.95,141.4333,17.62,46,0,6.67,AU,1728132468
329,roquetas de mar,36.7642,-2.6148,24.0,79,6,3.66,ES,1728132469
330,puerto armuelles,8.2833,-82.8667,25.05,90,58,1.34,PA,1728132470
331,santiago de cao,-7.9589,-79.2392,17.07,88,40,1.03,PE,1728132472
332,crestwood village,39.9482,-74.3607,18.13,80,4,3.32,US,1728132473
333,kingori,-3.2833,36.9833,26.21,44,75,2.57,TZ,1728132406
334,dunedin,-45.8742,170.5036,8.78,99,16,0.45,NZ,1728132475
335,keflavik,64.0049,-22.5624,7.24,57,0,4.63,IS,1728132232
336,radom,51.4025,21.1471,11.75,88,100,4.12,PL,1728132477
337,holyhead,53.3062,-4.6321,16.96,67,54,10.29,GB,1728132478
338,tucuma,-0.1833,-50.05,30.58,59,80,3.84,BR,1728132479
339,kruisfontein,-34.0033,24.7314,33.64,17,0,4.92,ZA,1728132480
340,alofi,-19.0595,-169.9187,22.94,64,75,3.6,NU,1728132481
341,posto fiscal rolim de moura,-13.0833,-62.2667,33.74,42,10,1.76,BR,1728132482
342,pontianak,-0.0333,109.3333,24.99,100,75,2.06,ID,1728132484
343,labasa,-16.4167,179.3833,23.27,90,11,2.58,FJ,1728132485
344,dhidhdhoo,6.8833,73.1,28.08,78,100,4.49,MV,1728132486
345,quellon,-43.1167,-73.6167,7.98,83,10,4.22,CL,1728132487
346,flin flon,54.7682,-101.865,7.91,61,100,3.6,CA,1728132488
347,chornomors'k,46.305,30.6548,21.34,84,100,7.08,UA,1728132489
348,kangding,30.0513,101.9603,13.33,99,99,1.91,CN,1728132490
349,notre-dame-des-prairies,46.0501,-73.4324,10.48,85,0,2.85,CA,1728132491
350,shizilu,35.1711,118.8289,17.77,68,100,2.43,CN,1728132493
351,huarmey,-10.0681,-78.1522,18.81,82,85,1.88,PE,1728132494
352,itapuranga,-15.5622,-49.9486,37.18,20,0,0.7,BR,1728132496
353,mapimi,25.8167,-103.85,16.98,70,5,0.83,MX,1728132374
354,badiyah,22.45,58.8,37.41,16,5,5.06,OM,1728132498
355,chulucanas,-5.0925,-80.1625,22.72,68,89,0.61,PE,1728132499
356,kovernino,57.1253,43.8142,11.44,80,99,2.94,RU,1728132500
357,mata-utu,-13.2816,-176.1745,27.46,79,39,9.63,WF,1728132501
358,pemba,-12.974,40.5178,29.39,65,20,8.65,MZ,1728132502
359,isangel,-19.55,169.2667,22.08,78,37,4.88,VU,1728132503
360,gamba,-2.65,10.0,25.89,79,99,2.29,GA,1728132504
361,kamakwie,9.5,-12.2333,27.69,75,100,0.88,SL,1728132505
362,tralee,52.2704,-9.7026,14.14,100,100,10.29,IE,1728132506
363,acarau,-2.8856,-40.12,30.62,57,7,6.9,BR,1728132508
364,adh dhibiyah,24.5014,45.9686,37.57,13,8,3.0,SA,1728132510
365,zaraza,9.3503,-65.3245,27.24,80,100,0.47,VE,1728132511
366,carnarvon,-24.8667,113.6333,20.48,78,84,9.77,AU,1728132512
367,binzhou,37.3667,118.0167,18.26,43,100,2.94,CN,1728132513
368,muynoq,43.7683,59.0214,18.47,46,11,4.42,UZ,1728132514
369,palafrugell,41.9174,3.1631,19.87,53,16,1.79,ES,1728132515
370,werota,11.9167,37.7,24.59,58,50,0.87,ET,1728132516
371,flying fish cove,-10.4217,105.6791,25.82,88,100,4.12,CX,1728132517
372,okha,53.5739,142.9478,8.84,91,41,7.62,RU,1728132518
373,borba,-4.3878,-59.5939,35.18,39,0,0.83,BR,1728132520
374,san andres,12.5847,-81.7006,29.01,84,40,2.06,CO,1728132521
375,berbera,10.4396,45.0143,31.88,67,100,3.81,SO,1728132522
376,malango,-2.9627,119.9001,18.99,98,91,0.99,ID,1728132523
377,cockburn town,21.4612,-71.1419,28.74,71,1,5.62,TC,1728132524
378,anna regina,7.2644,-58.5077,29.25,71,100,2.63,GY,1728132525
379,quepos,9.4236,-84.1652,26.72,77,82,1.05,CR,1728132526
380,nuku'alofa,-21.1333,-175.2,23.19,88,20,3.6,TO,1728132527
381,hawaiian paradise park,19.5933,-154.9731,21.73,94,75,2.06,US,1728132528
382,mitsamiouli,-11.3847,43.2844,25.32,76,32,2.48,KM,1728132529
383,port blair,11.6667,92.75,27.86,78,99,3.05,IN,1728132530
384,shevchenko,48.5,35.0,26.81,30,5,4.09,UA,1728132531
385,konarka,19.9,86.1167,28.84,75,95,1.24,IN,1728132533
386,oisterwijk,51.5792,5.1889,16.64,56,0,4.12,NL,1728132534
387,mabaruma,8.2,-59.7833,28.27,75,96,1.54,GY,1728132535
388,torghay,49.6339,63.4981,16.08,19,0,2.61,KZ,1728132536
389,kuta,-8.7233,115.1723,27.97,89,40,4.63,ID,1728132537
390,negotino,41.4839,22.0892,24.18,59,100,1.6,MK,1728132538
391,shingu,33.7333,135.9833,21.68,94,99,1.49,JP,1728132539
392,north bend,43.4065,-124.2243,8.48,100,100,0.0,US,1728132540
393,manismata,-2.4667,111.0333,24.11,95,91,0.71,ID,1728132541
394,montevideo,-34.8335,-56.1674,17.51,72,0,6.69,UY,1728132300
395,bouna,9.2667,-3.0,29.81,61,73,0.92,CI,1728132544
396,mount pearl,47.5166,-52.7813,13.41,96,100,3.6,CA,1728132545
397,aktau,43.65,51.2,22.32,52,0,4.93,KZ,1728132428
398,alpena,45.0617,-83.4327,1.18,93,0,0.0,US,1728132547
399,marana,32.4367,-111.2254,27.19,23,0,3.4,US,1728132548
400,wanning,18.8003,110.3967,24.4,82,16,3.64,CN,1728132549
401,bamboo flat,11.7,92.7167,27.38,79,99,2.93,IN,1728132550
402,as sulayyil,20.4607,45.5779,38.07,11,0,1.17,SA,1728132551
403,metahara,8.9,39.9167,30.76,40,60,4.46,ET,1728132552
404,saint-joseph,-21.3667,55.6167,23.21,62,4,5.81,RE,1728132554
405,mary,37.0,62.5,25.29,35,41,6.79,TM,1728132354
406,n'zeto,-7.2312,12.8666,25.73,77,84,3.93,AO,1728132556
407,belmonte,-15.8631,-38.8828,27.25,68,55,1.2,BR,1728132557
408,jiuquan,39.7432,98.5174,15.27,32,100,1.77,CN,1728132558
409,idrinskoye,54.3708,92.1358,7.38,65,100,1.06,RU,1728132559
410,ust-tsilma,65.441,52.1498,2.51,96,100,2.57,RU,1728132560
411,lenggries,47.6833,11.5667,9.46,96,100,0.28,DE,1728132562
412,bokovskaya,49.229,41.8306,24.98,22,88,4.34,RU,1728132563
413,roseburg,43.2165,-123.3417,10.84,92,100,0.0,US,1728132564
414,pozarevac,44.6153,21.1825,19.62,57,5,2.52,RS,1728132565
415,nagqu,31.5,92.0,5.9,59,8,1.41,CN,1728132567
416,cam ranh,11.9214,109.1591,27.98,74,20,5.14,VN,1728132568
417,gignac,43.652,3.5509,20.65,31,2,3.08,FR,1728132570
418,tannum sands,-23.9504,151.3693,19.94,77,0,0.0,AU,1728132571
419,navasota,30.388,-96.0877,21.77,95,3,3.08,US,1728132572
420,canutama,-6.5339,-64.3831,29.04,64,17,1.59,BR,1728132573
421,sorong,-0.8833,131.25,25.97,85,100,3.47,ID,1728132574
422,formosa do rio preto,-11.0483,-45.1931,35.71,22,0,3.11,BR,1728132575
423,cooper's town,26.8667,-77.5167,27.7,72,5,7.26,BS,1728132576
424,celestun,20.8667,-90.4,26.43,87,100,3.3,MX,1728132577
425,mega,4.05,38.3,22.08,46,85,6.45,ET,1728132578
426,gizo,-8.103,156.8419,27.82,77,63,3.01,SB,1728132579
427,bontang,0.1333,117.5,26.76,83,17,4.06,ID,1728132581
428,lantana,26.5867,-80.052,27.23,90,100,2.06,US,1728132467
429,krasnoarmeysk,51.0239,45.6969,21.52,25,100,3.64,RU,1728132583
430,syktyvkar,61.6764,50.8099,6.85,93,75,4.0,RU,1728132453
431,tarawa,1.419,172.984,28.05,78,20,4.12,KI,1728132585
432,kismayo,-0.3582,42.5454,27.32,70,50,8.46,SO,1728132586
433,colonia,50.9333,6.95,16.62,63,20,2.57,DE,1728132365
434,zhangye,38.9342,100.4517,16.1,30,100,2.2,CN,1728132588
435,vylkove,45.4021,29.586,24.02,65,100,5.73,UA,1728132589
436,yankton,42.8711,-97.3973,15.06,94,0,4.12,US,1728132590
437,boa vista,2.8197,-60.6733,25.99,78,40,3.09,BR,1728132591
438,mersing,2.4312,103.8405,25.95,89,20,1.54,MY,1728132593
439,motygino,58.1831,94.7592,6.53,86,100,4.82,RU,1728132594
440,san antonio de pale,-1.4014,5.6325,24.82,78,83,3.8,GQ,1728132595
441,walvis bay,-22.9575,14.5053,34.53,26,0,4.12,NA,1728132596
442,springbok,-29.6643,17.8865,30.68,10,100,9.37,ZA,1728132402
443,haiku-pauwela,20.9219,-156.3051,23.91,78,75,2.57,US,1728132598
444,bongouanou,6.6486,-4.1992,25.93,82,98,0.96,CI,1728132601
445,quatre cocos,-20.2078,57.7625,24.06,67,81,8.11,MU,1728132602
446,eyl,7.9803,49.8164,32.54,47,24,8.32,SO,1728132603
447,kabo,7.6994,18.629,28.67,72,90,1.56,CF,1728132605
448,vail,32.0479,-110.712,24.89,21,0,2.24,US,1728132546
449,yen bai,21.7,104.8667,23.52,70,5,1.12,VN,1728132607
450,freetown,8.484,-13.2299,27.84,78,75,4.63,SL,1728132608
451,urangan,-25.3,152.9,21.77,72,0,8.98,AU,1728132609
452,barabinsk,55.3571,78.357,8.88,50,7,3.18,RU,1728132610
453,lucapa,-8.4192,20.7447,34.31,19,13,3.71,AO,1728132612
454,el abiodh sidi cheikh,32.893,0.5484,26.76,32,5,2.32,DZ,1728132613
455,nadym,65.5333,72.5167,0.48,65,100,4.18,RU,1728132614
456,chegdomyn,51.1167,133.0167,5.2,84,100,2.91,RU,1728132615
457,brisas de zicatela,15.8369,-97.0419,24.6,85,100,2.12,MX,1728132616
458,raja,8.4596,25.678,32.8,47,46,1.14,SS,1728132617
459,chyorny yar,48.0624,46.1091,23.94,18,100,2.29,RU,1728132618
460,lorengau,-2.0226,147.2712,27.35,81,76,2.27,PG,1728132619
461,misratah,32.3754,15.0925,27.25,65,53,6.05,LY,1728132620
462,jinxiang,27.4327,120.6062,22.25,89,99,3.39,CN,1728132621
463,ciudad lazaro cardenas,17.9583,-102.2,25.13,90,100,1.14,MX,1728132578
464,la passe,45.5549,-0.8967,18.22,49,60,5.24,FR,1728132624
465,bardai,11.65,7.2333,23.95,80,100,4.86,NG,1728132625
466,rio bueno,-40.3167,-72.9667,6.46,87,96,1.29,CL,1728132456
467,gurlan,41.8447,60.3919,23.49,37,93,2.76,UZ,1728132627
468,sagua la grande,22.8067,-80.0756,27.89,82,6,2.22,CU,1728132628
469,kuching,1.55,110.3333,25.12,97,40,2.57,MY,1728132474
470,pokhara,28.2333,83.9833,19.51,92,49,1.44,NP,1728132565
471,point pedro,9.8167,80.2333,28.27,80,100,5.13,LK,1728132631
472,pilar de la horadada,37.8659,-0.7926,29.29,68,20,5.14,ES,1728132632
473,porto novo,6.4965,2.6036,28.9,71,100,4.43,BJ,1728132633
474,cambria,35.5641,-121.0808,18.24,68,20,0.65,US,1728132634
475,san jose de jachal,-30.2406,-68.7469,22.38,23,2,2.32,AR,1728132637
476,karlivka,49.4567,35.1295,25.83,32,5,4.45,UA,1728132638
477,pechora,65.1472,57.2244,2.41,96,100,4.37,RU,1728132437
478,vadso,70.0744,29.7487,5.09,70,20,8.23,NO,1728132640
479,berezovo,63.9381,65.0419,3.0,83,100,5.02,RU,1728132641
480,delijan,33.9905,50.6838,22.64,34,0,3.6,IR,1728132642
481,key west,24.5557,-81.7826,29.0,84,20,4.12,US,1728132643
482,ziway,7.9333,38.7167,25.15,49,94,3.42,ET,1728132644
483,queenstown,-31.8976,26.8753,28.8,8,0,5.77,ZA,1728132646
484,senanga,-16.1167,23.2667,31.86,13,0,4.21,ZM,1728132407
485,east end,34.5507,-92.341,18.84,82,0,1.16,US,1728132648
486,caninde de sao francisco,-9.66,-37.7894,31.14,43,46,2.69,BR,1728132649
487,kataba,8.4604,-0.7732,25.7,86,99,1.33,GH,1728132650
488,ryotsu-minato,38.0833,138.4333,18.29,76,66,2.21,JP,1728132651
489,kandahar,31.0,65.75,29.19,10,5,5.26,AF,1728132652
490,holalkere,14.0333,76.1833,23.45,85,100,1.96,IN,1728132653
491,ulety,51.3572,112.4849,0.2,52,0,1.59,RU,1728132654
492,hinton,53.4001,-117.5857,1.19,94,13,1.79,CA,1728132655
493,magdagachi,53.45,125.8,1.44,61,1,1.54,RU,1728132656
494,borovskoy,53.8,64.15,13.25,30,0,2.26,KZ,1728132658
495,karlskrona,56.1616,15.5866,14.25,62,5,2.77,SE,1728132598
496,qandala,11.472,49.8728,30.54,66,47,2.5,SO,1728132660
497,santarem,-2.4431,-54.7083,30.07,74,20,6.69,BR,1728132621
498,inverell,-29.7833,151.1167,15.37,92,4,1.73,AU,1728132662
499,chihuahua,28.5,-106.0,13.63,59,0,0.68,MX,1728132434
500,semenivka,52.1783,32.5818,13.1,95,100,3.28,UA,1728132441
501,kasumkent,41.6773,48.146,19.03,45,1,3.57,RU,1728132665
502,fortuna,40.5982,-124.1573,8.51,100,0,3.6,US,1728132666
503,road town,18.4167,-64.6167,29.02,79,40,2.06,VG,1728132436
504,siwa oasis,29.2041,25.5195,31.41,23,0,2.62,EG,1728132670
505,san pedro pochutla,15.7333,-96.4667,23.73,91,100,2.07,MX,1728132672
506,taro,-8.3862,115.28,20.23,100,100,0.87,ID,1728132673
507,sao gabriel da cachoeira,-0.1303,-67.0892,25.89,83,40,2.06,BR,1728132674
508,allapalli,19.4167,80.0667,26.59,83,11,1.13,IN,1728132675
509,kuraymah,18.55,31.85,41.96,10,1,4.05,SD,1728132676
510,challakere,14.3167,76.65,25.74,75,100,2.86,IN,1728132677
511,infantes,38.7367,-3.0122,23.6,41,51,5.27,ES,1728132678
512,ierapetra,35.01,25.7353,26.16,61,2,5.26,GR,1728132679
513,neryungri,56.6709,124.6491,-2.04,92,89,1.3,RU,1728132681
514,tamandare,-8.7597,-35.1047,27.25,61,100,4.01,BR,1728132683
515,dukhan,25.4297,50.7858,32.3,49,0,6.51,QA,1728132685
516,trairi,-3.2778,-39.2689,30.22,55,75,6.45,BR,1728132552
517,znamenskoye,57.1281,73.8282,8.97,52,100,2.31,RU,1728132687
518,nizhniy kuranakh,58.8353,125.4869,0.24,85,100,2.11,RU,1728132689
519,beloyarskiy,63.7119,66.6722,2.76,82,100,3.6,RU,1728132690
520,coquimbo,-29.9533,-71.3436,11.85,100,100,1.03,CL,1728132662
521,arauca,7.0847,-70.7591,23.98,100,75,2.06,CO,1728132548
522,tondano,1.3038,124.9112,21.05,98,42,0.8,ID,1728132695
523,constitucion,-35.3333,-72.4167,15.22,59,6,1.7,CL,1728132696
524,al jawf,29.5,38.75,34.46,10,0,2.17,SA,1728132697
525,alta,69.9689,23.2717,5.59,81,75,0.0,NO,1728132698
526,sonoita,31.85,-112.8333,28.69,17,0,2.05,MX,1728132699
527,moranbah,-22.0016,148.0466,19.97,52,0,2.05,AU,1728132700
528,narvik,68.4384,17.4272,3.48,92,56,1.39,NO,1728132701
529,buulobarde,3.8538,45.5674,33.81,36,100,6.48,SO,1728132702
530,puerto lempira,15.2667,-83.7667,25.08,88,20,0.0,HN,1728132706
531,alotau,-10.3069,150.4462,23.77,97,66,1.85,PG,1728132707
532,saint-francois,46.4154,3.9054,14.26,69,75,3.09,FR,1728132708
533,stjordalshalsen,63.4681,10.9262,8.0,93,75,1.03,NO,1728132709
534,fairview heights,38.5889,-89.9904,16.44,94,0,0.0,US,1728132710
535,nogliki,51.8333,143.1667,8.49,88,67,3.13,RU,1728132712
536,alto piquiri,-24.0281,-53.4406,25.8,43,1,4.11,BR,1728132713
537,mbuguni,-3.5667,36.95,27.79,47,100,3.6,TZ,1728132716
538,keetmanshoop,-26.5833,18.1333,31.51,11,0,6.69,NA,1728132514
539,borogontsy,62.6683,131.1683,0.39,95,100,2.04,RU,1728132718
540,tateyama,34.9833,139.8667,21.02,88,100,5.49,JP,1728132719
541,tagta,41.6504,59.9164,22.97,53,0,5.14,TM,1728132721
542,brookings,44.3114,-96.7984,13.99,88,0,7.2,US,1728132676
543,lobujya,27.95,86.8167,-1.5,89,100,2.74,NP,1728132723
544,jiangkou,25.4872,119.1986,23.1,81,93,3.38,CN,1728132724
545,zabreh,49.8826,16.8722,11.14,74,100,1.64,CZ,1728132725
546,viitasaari,63.0667,25.8667,8.44,57,80,3.69,FI,1728132727
547,mirnyy,62.5353,113.9611,-1.28,93,49,2.82,RU,1728132728
548,tbilisskaya,45.3633,40.19,26.32,20,2,0.51,RU,1728132454
549,lai chau,22.3997,103.4517,17.38,86,15,2.14,VN,1728132730
550,saint-philippe,-21.3585,55.7679,20.63,63,9,6.06,RE,1728132731
551,guiratinga,-16.3494,-53.7583,35.58,27,6,4.7,BR,1728132732
552,boma,11.7117,4.2472,23.29,93,100,3.94,NG,1728132733
553,lufkin,31.3382,-94.7291,20.95,100,75,1.54,US,1728132734
554,tamanrasset,22.785,5.5228,32.95,13,40,1.54,DZ,1728132735
