City_ID,City,Lat,Lng,Max Temp,Humidity,Cloudiness,Wind Speed,Country,Date
0,carutapera,-1.195,-46.02,298.62,80,97,4.51,BR,1728098725
1,preobrazheniye,42.9019,133.9064,292.84,45,0,2.82,RU,1728098726
2,kailua-kona,19.6406,-155.9956,301.13,62,40,5.14,US,1728098727
3,margaret river,-33.95,115.0667,289.5,68,95,3.86,AU,1728098728
4,essaouira,31.5125,-9.77,296.87,78,0,4.63,MA,1728098729
5,iskateley,67.6803,53.1512,274.17,74,100,5.69,RU,1728098730
6,swakopmund,-22.6833,14.5333,287.03,88,3,2.88,NA,1728098731
7,nicoya,10.1483,-85.452,296.91,94,19,0.69,CR,1728098732
8,port-aux-francais,-49.35,70.2167,274.78,80,100,3.16,TF,1728098733
9,iquitos,-3.7481,-73.2472,297.17,94,75,0.51,PE,1728098734
10,longyearbyen,78.2186,15.6401,269.06,86,75,3.6,SJ,1728098735
11,albany,42.6001,-73.9662,288.62,73,63,1.77,US,1728098736
12,hawaiian paradise park,19.5933,-154.9731,299.88,76,20,3.09,US,1728098738
13,kristiansund,63.1115,7.732,281.0,93,100,2.06,NO,1728098739
14,kavieng,-2.5744,150.7967,301.35,79,100,7.39,PG,1728098740
15,iqaluit,63.7506,-68.5145,276.0,93,100,0.0,CA,1728098741
16,pulandian,39.3953,121.9669,295.46,39,59,3.9,CN,1728098742
17,invercargill,-46.4,168.35,288.72,80,62,4.02,NZ,1728098743
18,wailua homesteads,22.0669,-159.378,300.59,68,0,5.66,US,1728098744
19,mar del plata,-38.0023,-57.5575,286.45,81,100,4.02,AR,1728098499
20,namibe,-15.1961,12.1522,294.26,75,93,2.37,AO,1728098746
21,lensk,60.7253,114.9278,275.86,86,99,4.53,RU,1728098601
22,kanye,-24.9667,25.3327,282.58,53,0,2.85,BW,1728098748
23,strathmore,51.0501,-113.3852,284.22,43,100,8.23,CA,1728098749
24,isafjordur,66.0755,-23.124,271.55,72,5,2.64,IS,1728098529
25,yonggwang-up,40.0183,127.4547,292.38,39,87,1.95,KP,1728098752
26,udachny,66.4167,112.4,274.19,74,49,5.99,RU,1728098753
27,blackmans bay,-43.0167,147.3167,290.11,48,96,1.79,AU,1728098754
28,yellowknife,62.456,-114.3525,272.27,94,20,1.54,CA,1728098755
29,imbituba,-28.24,-48.6703,289.21,78,97,2.38,BR,1728098756
30,atafu village,-8.5421,-172.5159,301.16,75,100,4.85,TK,1728098757
31,tsumeb,-19.2333,17.7167,293.11,37,5,7.94,NA,1728098758
32,amga,60.8953,131.9608,276.84,74,99,1.99,RU,1728098759
33,santa cruz,-17.8,-63.1667,296.85,50,8,2.57,BO,1728098522
34,puerto ayora,-0.7393,-90.3518,294.57,92,71,1.34,EC,1728098761
35,dieppe,49.75,1.1667,280.22,86,88,2.86,FR,1728098762
36,nemuro,43.3236,145.575,288.82,80,9,8.48,JP,1728098764
37,olinda,-8.0089,-34.8553,299.0,73,40,4.12,BR,1728098765
38,saldanha,-33.0117,17.9442,289.18,49,65,2.89,ZA,1728098766
39,college,64.8569,-147.8028,283.14,41,40,2.57,US,1728098767
40,port mathurin,-19.6833,63.4167,295.86,89,86,9.35,MU,1728098768
41,adamstown,-25.066,-130.1015,294.93,88,0,7.77,PN,1728098769
42,west island,-12.1568,96.8225,301.14,78,75,8.23,CC,1728098770
43,quellon,-43.1167,-73.6167,278.45,87,94,2.66,CL,1728098771
44,senillosa,-39.0,-68.4167,288.03,29,95,3.85,AR,1728098772
45,puerto natales,-51.7236,-72.4875,275.26,86,20,2.68,CL,1728098572
46,kuqa,41.7278,82.9364,290.74,35,0,6.38,CN,1728098774
47,petropavlovsk-kamchatsky,53.0452,158.6483,289.48,15,0,8.0,RU,1728098775
48,tolanaro,-25.0319,46.9987,290.19,88,40,1.03,MG,1728098776
49,seeb,23.6703,58.1891,307.2,38,20,4.12,OM,1728098778
50,komlo,46.1928,18.2649,282.84,95,84,1.44,HU,1728098779
51,carnarvon,-24.8667,113.6333,297.37,50,94,5.84,AU,1728098780
52,bikenibeu village,1.3673,173.1241,304.13,70,20,5.14,KI,1728098781
53,qaqortoq,60.7167,-46.0333,275.95,60,0,1.69,GL,1728098782
54,altai,46.3722,96.2583,273.15,47,0,1.14,MN,1728098783
55,maitum,6.0392,124.4986,302.9,66,78,2.44,PH,1728098784
56,cururupu,-1.8283,-44.8683,296.69,86,12,1.45,BR,1728098785
57,badger,64.8,-147.5333,283.1,41,40,2.57,US,1728098786
58,grand gaube,-20.0064,57.6608,296.14,77,49,1.79,MU,1728098787
59,haradok,55.4624,29.9816,279.68,98,99,2.12,BY,1728098790
60,rongelap,11.1635,166.8941,301.55,74,100,7.79,MH,1728098791
61,illizi,26.4833,8.4667,299.75,22,0,3.61,DZ,1728098792
62,boguchany,58.3814,97.4531,278.79,89,100,5.1,RU,1728098793
63,olonkinbyen,70.9221,-8.7187,272.29,71,53,3.93,SJ,1728098716
64,priob'ye,62.5206,65.5964,276.26,79,100,2.8,RU,1728098795
65,saipan,15.1355,145.701,304.54,70,40,3.6,MP,1728098796
66,pisco,-13.7,-76.2167,291.18,82,100,1.54,PE,1728098797
67,isla vista,34.4133,-119.861,294.35,94,75,3.6,US,1728098798
68,eyguieres,43.6948,5.0313,283.74,81,0,0.0,FR,1728098799
69,krasnaya gora,52.9995,31.6023,284.31,94,100,4.17,RU,1728098800
70,kapa'a,22.0752,-159.319,301.33,65,0,5.66,US,1728098638
71,lhuentse,27.6679,91.1839,293.31,88,100,1.49,BT,1728098802
72,sitka,57.0531,-135.33,285.09,66,75,3.09,US,1728098804
73,stanley,54.868,-1.6985,281.22,90,99,1.54,GB,1728098805
74,tiksi,71.6872,128.8694,266.11,92,93,1.53,RU,1728098806
75,katsina,12.9894,7.6006,297.58,68,100,2.98,NG,1728098807
76,ushuaia,-54.8,-68.3,275.96,81,75,4.63,AR,1728098734
77,waitangi,-43.9535,-176.5597,285.27,98,100,7.15,NZ,1728098809
78,edinburgh of the seven seas,-37.0676,-12.3116,286.44,96,100,5.68,SH,1728098810
79,arar,30.9753,41.0381,293.16,37,0,3.09,SA,1728098811
80,bambari,5.768,20.6757,294.34,97,100,0.92,CF,1728098812
81,thompson,55.7435,-97.8558,273.24,86,100,1.03,CA,1728098665
82,bardai,11.65,7.2333,294.14,92,89,2.61,NG,1728098815
83,petauke,-14.2426,31.3253,286.37,74,0,4.97,ZM,1728098817
84,kone,-21.0595,164.8658,302.13,42,1,3.07,NC,1728098818
85,happy valley-goose bay,53.3168,-60.3315,280.32,76,40,3.09,CA,1728098739
86,lihue,21.9789,-159.3672,300.92,66,0,5.66,US,1728098820
87,grytviken,-54.2811,-36.5092,272.45,97,100,5.23,GS,1728098433
88,kolleda,51.1833,11.2333,282.63,95,100,1.46,DE,1728098823
89,salinopolis,-0.6136,-47.3561,299.6,80,100,6.58,BR,1728098824
90,murakami,38.2333,139.4833,295.4,57,10,2.47,JP,1728098825
91,aglona,56.1333,27.0167,276.39,97,13,1.75,LV,1728098826
92,naze,28.3667,129.4833,300.66,82,100,2.83,JP,1728098421
93,bozyazi,36.1082,32.9611,298.58,39,0,2.73,TR,1728098829
94,selma,36.5708,-119.6121,305.18,32,0,3.09,US,1728098831
95,utrik,11.2278,169.8474,301.52,76,93,4.79,MH,1728098832
96,federacion,-31.0062,-57.8996,286.44,85,10,4.07,AR,1728098734
97,ranot,7.7777,100.3213,301.11,75,99,3.56,TH,1728098835
98,bredasdorp,-34.5322,20.0403,291.61,53,7,1.84,ZA,1728098836
99,riyadh,24.6877,46.7219,299.6,28,0,2.18,SA,1728098700
100,alesund,62.4723,6.1549,284.68,86,100,4.63,NO,1728098839
101,aasiaat,68.7098,-52.8699,271.94,84,44,1.56,GL,1728098840
102,kourou,5.1552,-52.6478,299.19,86,37,3.59,GF,1728098841
103,fortuna,40.5982,-124.1573,285.01,89,0,2.06,US,1728098842
104,jamestown,42.097,-79.2353,285.95,79,0,2.06,US,1728098758
105,mountain home,43.133,-115.6912,296.86,27,75,8.05,US,1728098844
106,weno,7.4515,151.8468,301.12,78,100,2.06,FM,1728098845
107,east ballina,-28.8667,153.5833,298.84,53,51,4.51,AU,1728098847
108,port alfred,-33.5906,26.891,292.84,55,0,3.82,ZA,1728098848
109,aroma,15.8167,36.1333,301.84,58,14,5.67,SD,1728098714
110,magburaka,8.7167,-11.95,295.34,99,90,0.25,SL,1728098850
111,flying fish cove,-10.4217,105.6791,300.97,83,100,6.17,CX,1728098851
112,lebu,-37.6167,-73.65,281.23,91,30,3.47,CL,1728098852
113,languyan,5.2618,120.0807,304.0,58,76,1.02,PH,1728098853
114,cidreira,-30.1811,-50.2056,291.03,72,1,8.67,BR,1728098854
115,kismayo,-0.3582,42.5454,298.32,80,34,7.09,SO,1728098855
116,majalengka,-6.8361,108.2278,305.74,51,100,0.75,ID,1728098856
117,la'ie,21.6477,-157.9253,300.13,74,99,1.34,US,1728098857
118,puerto baquerizo moreno,-0.9,-89.6,294.21,90,67,5.0,EC,1728098858
119,crane,31.3974,-102.3501,298.03,37,0,6.14,US,1728098861
120,kill devil hills,36.0307,-75.676,294.81,77,0,1.54,US,1728098862
121,bathsheba,13.2167,-59.5167,299.49,89,20,2.06,BB,1728098863
122,petrovsk-zabaykal'skiy,51.273,108.843,278.0,46,13,2.75,RU,1728098864
123,punta arenas,-53.15,-70.9167,277.21,75,75,4.12,CL,1728098797
124,talnakh,69.4865,88.3972,271.03,96,100,3.0,RU,1728098713
125,victorica,-36.2151,-65.4359,292.51,30,0,7.77,AR,1728098867
126,ust-nera,64.5667,143.2,273.1,88,99,3.41,RU,1728098868
127,berrotaran,-32.451,-64.3887,287.01,38,0,2.41,AR,1728098869
128,yerofey pavlovich,53.9667,121.9667,281.45,30,33,1.26,RU,1728098870
129,bethel,41.3712,-73.414,289.63,83,20,0.0,US,1728098871
130,padang,-0.9492,100.3543,301.18,92,100,0.86,ID,1728098873
131,huazhou,21.6333,110.5833,300.79,51,0,3.2,CN,1728098874
132,likiep,9.8251,169.3107,300.65,80,100,6.85,MH,1728098875
133,kushiro,42.975,144.3747,292.68,63,75,6.17,JP,1728098876
134,vila franca do campo,37.7167,-25.4333,297.38,94,100,5.99,PT,1728098877
135,priozersk,61.0393,30.1291,278.2,100,99,3.35,RU,1728098748
136,tilcara,-23.5776,-65.3509,285.82,48,48,3.86,AR,1728098879
137,georgetown,5.4112,100.3354,303.12,74,40,3.09,MY,1728098728
138,hadibu,12.65,54.0333,299.5,82,97,3.63,YE,1728098881
139,klyuchi,52.2667,79.1667,282.9,46,7,0.92,RU,1728098882
140,benguela,-12.5763,13.4055,296.54,86,43,1.66,AO,1728098883
141,keflavik,64.0049,-22.5624,277.39,70,0,5.66,IS,1728098885
142,tshabong,-26.05,22.45,286.08,32,1,4.8,BW,1728098886
143,tumut,-35.3,148.2167,291.57,51,95,6.37,AU,1728098887
144,yanbu,24.0891,38.0637,298.17,73,0,3.6,SA,1728098788
145,uruguaiana,-29.7547,-57.0883,290.11,72,0,6.69,BR,1728098889
146,ancud,-41.8697,-73.8203,278.75,91,25,3.1,CL,1728098890
147,bengkulu,-3.8004,102.2655,301.25,69,100,1.56,ID,1728098891
148,nar'yan-mar,67.6713,53.087,274.16,74,100,5.78,RU,1728098892
149,darwin,-12.4611,130.8418,306.14,50,40,4.12,AU,1728098893
150,apastepeque,13.6667,-88.7833,292.98,98,86,0.74,SV,1728098894
151,alice springs,-23.7,133.8833,304.9,19,0,6.17,AU,1728098895
152,tzimol,16.2667,-92.2667,290.46,92,100,1.01,MX,1728098896
153,minas de marcona,-15.2119,-75.1103,288.53,70,52,1.74,PE,1728098898
154,hauterive,46.0901,3.4459,277.92,96,14,0.42,FR,1728098899
155,tocopilla,-22.092,-70.1979,291.51,72,42,0.28,CL,1728098900
156,ambon,-3.6954,128.1814,303.23,100,40,2.06,ID,1728098901
157,floro,61.5996,5.0328,281.13,93,100,6.17,NO,1728098902
158,diawara,15.022,-12.5437,302.18,68,87,4.34,SN,1728098903
159,visby,57.6409,18.296,277.27,100,16,2.06,SE,1728098904
160,port hedland,-20.3167,118.5667,305.18,43,0,5.66,AU,1728098779
161,berezovo,63.9381,65.0419,274.32,89,100,1.36,RU,1728098906
162,dryden,49.7833,-92.7503,285.31,58,100,4.12,CA,1728098907
163,port shepstone,-30.7414,30.455,288.95,74,0,4.21,ZA,1728098908
164,san patricio,28.017,-97.5169,300.12,80,4,5.33,US,1728098909
165,northam,51.0333,-4.2167,284.05,88,18,4.83,GB,1728098911
166,three points,32.0767,-111.3137,308.1,11,0,1.54,US,1728098912
167,zhosaly,45.4878,64.0781,287.28,25,100,4.67,KZ,1728098913
168,east london,-33.0153,27.9116,290.67,59,0,2.06,ZA,1728098915
169,bilibino,68.0546,166.4372,268.91,96,100,3.16,RU,1728098916
170,hamilton,39.1834,-84.5333,291.72,80,20,0.45,US,1728098672
171,carolina beach,34.0352,-77.8936,297.08,88,100,3.06,US,1728098918
172,linares,-35.85,-71.6,284.04,82,80,1.73,CL,1728098830
173,sandnessjoen,66.0217,12.6316,280.54,58,66,4.17,NO,1728098920
174,lupane,-18.9315,27.807,284.73,61,0,3.42,ZW,1728098921
175,sayat,38.7839,63.8803,293.41,47,100,4.82,TM,1728098922
176,cambria,35.5641,-121.0808,288.74,95,58,0.89,US,1728098924
177,bel ombre,-4.6167,55.4167,299.06,83,40,3.6,SC,1728098925
178,ar ruways,24.1103,52.7306,303.14,47,0,5.13,AE,1728098926
179,qurayyat,31.3318,37.3428,291.25,52,0,4.63,SA,1728098927
180,puerto ayacucho,5.6639,-67.6236,297.41,91,100,2.13,VE,1728098928
181,dapa,9.7594,126.0531,301.66,67,93,1.19,PH,1728098929
182,tsengel,49.4783,100.8894,277.84,35,28,2.29,MN,1728098930
183,port elizabeth,-33.918,25.5701,288.88,74,0,2.06,ZA,1728098931
184,ilulissat,69.2167,-51.1,273.16,86,94,0.0,GL,1728098932
185,mejit,10.2753,170.8646,300.91,78,85,5.57,MH,1728098933
186,taguatinga,-12.3857,-46.5711,300.24,21,44,0.9,BR,1728098934
187,sinabang,2.4803,96.3801,297.23,96,100,0.9,ID,1728098936
188,coahuayana de hidalgo,18.7,-103.6583,299.23,91,61,1.21,MX,1728098937
189,san antonio de pale,-1.4014,5.6325,297.66,81,100,4.16,GQ,1728098938
190,callao,-12.0667,-77.15,291.33,82,75,5.66,PE,1728098765
191,sinjai,-5.1241,120.253,303.79,59,100,5.67,ID,1728098940
192,mount pearl,47.5166,-52.7813,283.34,94,0,5.66,CA,1728098941
193,buka,40.8108,69.1986,291.77,68,100,2.28,UZ,1728098942
194,fort bragg,35.139,-79.006,295.06,89,100,0.0,US,1728098943
195,muynoq,43.7683,59.0214,289.37,74,17,3.15,UZ,1728098944
196,kodiak,57.79,-152.4072,280.88,71,0,5.14,US,1728098297
197,guelendeng,10.9176,15.5501,296.35,90,95,2.02,TD,1728098771
198,sisimiut,66.9395,-53.6735,275.57,85,5,2.37,GL,1728098947
199,la paz,-16.5,-68.15,283.14,42,40,7.2,BO,1728098709
200,mendoza,-32.8908,-68.8272,290.89,36,0,1.54,AR,1728098715
201,hjo,58.3013,14.2878,278.72,91,65,3.25,SE,1728098951
202,mil'kovo,55.6078,37.7956,284.06,71,100,2.77,RU,1728098952
203,nguti,5.3299,9.4185,295.18,99,100,0.29,CM,1728098953
204,ridder,50.355,83.5133,283.97,28,11,0.96,KZ,1728098954
205,praia da vitoria,38.7333,-27.0667,294.29,100,75,4.12,PT,1728098955
206,greymouth,-42.4667,171.2,286.6,73,100,1.12,NZ,1728098956
207,zhangye,38.9342,100.4517,288.01,34,100,4.56,CN,1728098957
208,lorengau,-2.0226,147.2712,302.31,72,100,2.11,PG,1728098958
209,laojunmiao,39.8333,97.7333,282.52,42,77,1.9,CN,1728098961
210,quelimane,-17.8786,36.8883,292.12,94,75,4.12,MZ,1728098962
211,tralee,52.2704,-9.7026,288.77,92,100,4.27,IE,1728098963
212,magadan,59.5667,150.8,277.54,68,1,0.75,RU,1728098964
213,la sierpe,21.7717,-79.2684,298.45,90,50,2.2,CU,1728098965
214,tikaitnagar,26.95,81.5833,301.31,73,0,2.61,IN,1728098966
215,dudinka,69.4058,86.1778,270.54,88,56,3.83,RU,1728098967
216,tuy hoa,13.0833,109.3,299.1,84,100,3.81,VN,1728098968
217,vila velha,-20.3297,-40.2925,296.12,87,75,6.17,BR,1728098919
218,sept-iles,50.2001,-66.3821,283.15,76,100,1.03,CA,1728098872
219,batticaloa,7.7102,81.6924,302.38,68,100,0.18,LK,1728098700
220,remire-montjoly,4.9167,-52.2667,299.17,89,0,1.54,GF,1728098973
221,karaton,-6.3424,106.1045,304.04,60,86,0.51,ID,1728098974
222,avarua,-21.2078,-159.775,296.18,56,75,5.66,CK,1728098975
223,nuuk,64.1835,-51.7216,275.49,75,0,1.03,GL,1728098976
224,rikaze,29.25,88.8833,285.71,38,1,1.2,CN,1728098977
225,hithadhoo,-0.6,73.0833,301.83,73,100,5.92,MV,1728098978
226,hermanus,-34.4187,19.2345,293.01,55,65,1.69,ZA,1728098979
227,luderitz,-26.6481,15.1594,300.53,28,99,9.98,NA,1728098980
228,aykhal,66.0,111.5,273.14,71,96,7.88,RU,1728098981
229,dogondoutchi,13.6393,4.0287,301.18,58,75,5.32,NE,1728098982
230,afaahiti,-17.75,-149.2833,295.83,79,100,10.77,PF,1728098983
231,san julian,21.0167,-102.1667,292.04,50,100,4.29,MX,1728098985
232,kidal,18.4411,1.4078,303.96,32,30,4.36,ML,1728098986
233,coquimbo,-29.9533,-71.3436,285.0,100,75,0.0,CL,1728098987
234,phan rang-thap cham,11.5667,108.9833,302.37,65,100,2.72,VN,1728098988
235,kolwezi,-10.7148,25.4667,287.64,51,50,4.3,CD,1728098989
236,wynyard,-41.0,145.7167,288.25,57,80,0.89,AU,1728098990
237,sant'antioco,39.0664,8.4522,291.75,63,17,5.47,IT,1728098991
238,nishinoomote,30.7333,131.0,297.46,94,75,6.17,JP,1728098992
239,mangrol,21.1167,70.1167,301.0,68,11,2.3,IN,1728098993
240,fort mcmurray,56.7268,-111.381,278.92,87,100,3.09,CA,1728098995
241,arraial do cabo,-22.9661,-42.0278,294.31,77,100,7.1,BR,1728098948
242,kulhudhuffushi,6.6221,73.07,301.58,76,89,4.8,MV,1728098997
243,vorgashor,67.5833,63.95,271.31,83,86,2.57,RU,1728098998
244,cabo san lucas,22.8909,-109.9124,300.79,69,0,5.36,MX,1728098999
245,ribeira grande,38.5167,-28.7,294.14,94,100,3.13,PT,1728099000
246,westport,41.1415,-73.3579,291.34,86,73,2.58,US,1728098800
247,kondagaon,19.6,81.6667,302.03,58,18,1.43,IN,1728099002
248,dawei,14.0833,98.2,303.65,70,96,0.93,MM,1728099003
249,tanout,14.9709,8.8879,300.22,59,100,2.02,NE,1728099004
250,north bend,43.4065,-124.2243,286.1,100,0,3.09,US,1728098936
251,khandyga,62.6667,135.6,274.88,99,100,1.24,RU,1728099008
252,awjilah,29.1081,21.2869,296.34,35,0,4.13,LY,1728099009
253,newman,37.3138,-121.0208,300.94,14,1,2.6,US,1728099010
254,ahmadpur east,29.1431,71.2598,305.7,45,0,6.34,PK,1728099011
255,bikin,46.8161,134.26,290.84,51,15,3.01,RU,1728099012
256,moranha,27.1833,94.9333,295.93,96,100,2.65,IN,1728099013
257,heyuan,23.7333,114.6833,297.34,55,96,2.65,CN,1728099014
258,akureyri,65.6835,-18.0878,274.11,80,100,0.51,IS,1728099016
259,touros,-5.1989,-35.4608,298.04,71,3,6.0,BR,1728099017
260,enewetak,11.3474,162.3373,301.56,79,100,7.77,MH,1728099018
261,coxen hole,16.3244,-86.5366,301.75,79,0,1.54,HN,1728099020
262,greenwood,34.1668,-82.1165,292.49,100,0,0.0,US,1728099021
263,karasburg,-28.0167,18.75,292.31,23,74,6.66,NA,1728099022
264,keetmanshoop,-26.5833,18.1333,293.66,26,25,5.66,NA,1728099023
265,mount pleasant,32.7941,-79.8626,296.23,95,75,2.06,US,1728098970
266,emiliano zapata,18.8333,-99.1833,292.87,83,98,0.48,MX,1728098891
267,whitehorse,60.7161,-135.0538,278.58,66,75,7.72,CA,1728099027
268,tazovsky,67.4667,78.7,273.05,74,49,6.94,RU,1728099028
269,yuzhno-kurilsk,44.0306,145.8556,287.06,88,100,10.63,RU,1728099029
270,tazacorte,28.629,-17.9293,294.69,83,0,5.14,ES,1728099030
271,saint-philippe,-21.3585,55.7679,293.32,77,93,7.46,RE,1728099032
272,eyl,7.9803,49.8164,299.35,73,93,6.86,SO,1728099033
273,rawson,-43.3002,-65.1023,280.31,61,0,1.03,AR,1728099034
274,polyarnyy,69.1989,33.4478,278.18,83,100,13.2,RU,1728099035
275,volchikha,52.0333,80.3833,285.58,38,9,1.78,RU,1728099036
276,el calafate,-50.3408,-72.2768,276.99,71,5,4.01,AR,1728099037
277,al burayqah,30.4062,19.5739,298.04,38,0,5.61,LY,1728099038
278,kruisfontein,-34.0033,24.7314,292.47,34,0,4.03,ZA,1728099039
279,bethanie,-26.4833,17.15,292.96,30,74,6.41,NA,1728099040
280,surgut,61.25,73.4167,276.25,100,75,4.0,RU,1728099042
281,ta`u,-14.2336,-169.5144,299.43,77,58,11.23,AS,1728099044
282,kingston,17.997,-76.7936,302.68,79,20,3.6,JM,1728099008
283,hengchun,22.0042,120.7439,302.03,72,32,3.78,TW,1728099046
284,anadyr,64.75,177.4833,275.43,93,100,6.0,RU,1728099047
285,uturoa,-16.7333,-151.4333,297.68,75,96,11.69,PF,1728099048
286,nova sintra,14.8667,-24.7167,299.3,77,100,2.7,CV,1728099049
287,malabar,-33.9667,151.25,300.11,32,0,8.23,AU,1728099050
288,auki,-8.7676,160.7034,302.94,65,70,0.68,SB,1728099051
289,mont-laurier,46.5501,-75.4993,282.43,81,80,0.59,CA,1728099052
290,waddan,29.1614,16.139,298.27,27,11,2.15,LY,1728099053
291,narasannapeta,18.4167,84.05,303.81,62,13,1.73,IN,1728099054
292,murzuq,25.9155,13.9184,298.57,19,5,4.08,LY,1728099056
293,chonchi,-42.6128,-73.8092,278.22,97,82,1.32,CL,1728099057
294,saint-pierre,-21.3393,55.4781,291.97,88,75,4.12,RE,1728099058
295,qarah bagh,34.9402,61.7759,289.46,54,7,7.34,AF,1728099059
296,shamkhor,40.8297,46.0189,285.35,72,1,1.49,AZ,1728099060
297,songyang,34.4553,113.0281,290.19,52,100,1.59,CN,1728099061
298,watsa,3.0372,29.5355,289.47,98,82,0.59,CD,1728099062
299,ola,59.5833,151.2833,278.25,60,0,1.41,RU,1728099064
300,doka,13.5167,35.7667,295.29,91,94,2.54,SD,1728099065
301,dasoguz,41.8363,59.9666,290.12,82,0,3.09,TM,1728099066
302,mount isa,-20.7333,139.5,310.02,26,40,6.17,AU,1728099067
303,pruszcz gdanski,54.2622,18.6363,282.86,55,75,0.51,PL,1728099068
304,natal,-5.795,-35.2094,298.27,78,40,4.63,BR,1728099005
305,lodwar,3.1191,35.5973,300.28,54,89,7.03,KE,1728099070
306,al jumum,21.6169,39.6981,302.84,37,4,1.65,SA,1728099071
307,taroa,8.7058,171.2275,301.76,73,100,5.12,MH,1728099072
308,yanam,16.7333,82.2167,307.19,50,74,1.01,IN,1728099073
309,anshun,26.25,105.9333,292.84,62,70,2.8,CN,1728099074
310,keningau,5.3378,116.1602,300.83,83,80,1.32,MY,1728099076
311,cockburn town,21.4612,-71.1419,301.76,71,6,4.26,TC,1728099077
312,papatowai,-46.5619,169.4708,284.35,94,100,2.6,NZ,1728099078
313,usevia,-7.1,31.2333,292.69,69,81,3.13,TZ,1728099079
314,kalmunai,7.4167,81.8167,303.45,65,97,2.54,LK,1728099080
315,port isabel,26.0734,-97.2086,300.38,90,40,0.45,US,1728098882
316,usoke,-5.1667,32.35,290.68,69,88,1.98,TZ,1728099082
317,claveria,18.6074,121.0832,303.52,70,96,5.98,PH,1728099084
318,louisville,38.2542,-85.7594,292.07,83,0,0.0,US,1728098931
319,el idrissia,34.4454,2.5275,289.39,78,44,2.19,DZ,1728099086
320,tanjung selor,2.8372,117.3642,302.84,77,96,0.88,ID,1728099087
321,playa blanca,28.8643,-13.8281,295.21,92,18,6.39,ES,1728099089
322,shimoda,34.6667,138.95,295.66,91,100,5.2,JP,1728099090
323,itamaraca,-7.7478,-34.8256,297.07,78,76,3.77,BR,1728099091
324,siem reap,13.5,104.0,305.35,59,30,0.42,KH,1728099094
325,mariental,-24.6333,17.9667,290.14,33,32,7.01,NA,1728099095
326,souillac,-20.5167,57.5167,295.36,73,75,7.2,MU,1728099096
327,yanta,36.2411,115.6672,296.1,40,40,3.21,CN,1728099097
328,dori,14.0354,-0.0345,302.4,53,97,3.1,BF,1728099022
329,nuku'alofa,-21.1333,-175.2,299.34,83,20,7.72,TO,1728099100
330,queenstown,-31.8976,26.8753,287.23,32,0,2.53,ZA,1728099101
331,khanty-mansiysk,61.0042,69.0019,277.21,81,75,3.0,RU,1728099102
332,lagoa,39.05,-27.9833,294.36,77,93,7.07,PT,1728099104
333,ain el bya,35.8039,-0.3018,295.56,65,1,2.0,DZ,1728099105
334,yatou,37.15,122.3833,294.73,37,93,2.46,CN,1728099106
335,berdigestyakh,62.0989,126.6992,274.86,80,100,3.32,RU,1728099107
336,el aouinet,35.8669,7.8867,291.01,59,54,1.39,DZ,1728099109
337,dondo,-19.6094,34.7431,291.88,83,47,3.6,MZ,1728099110
338,alofi,-19.0595,-169.9187,299.09,61,75,7.2,NU,1728099111
339,ballina,-28.8667,153.5667,299.57,52,40,6.03,AU,1728099112
340,kastsyukowka,52.5387,30.9173,284.15,93,100,6.0,BY,1728099114
341,tofol,5.3248,163.0078,301.03,83,100,3.6,FM,1728099115
342,holualoa,19.6228,-155.9522,299.06,69,40,5.14,US,1728099116
343,chinde,26.8212,87.7095,297.58,90,94,2.08,NP,1728099117
344,aleysk,52.4926,82.7822,284.21,44,42,1.52,RU,1728099119
345,totness,5.8833,-56.3167,299.88,90,33,4.49,SR,1728099120
346,nanao,37.05,136.9667,295.54,71,95,3.65,JP,1728099121
347,pueblo nuevo,23.3833,-105.3833,284.28,58,8,3.85,MX,1728099122
348,maceio,-9.6658,-35.7353,295.84,94,40,2.06,BR,1728099123
349,bemidji,47.4736,-94.8803,286.2,45,0,5.14,US,1728099124
350,fuglafjordur,62.244,-6.814,281.67,98,100,10.16,FO,1728099126
351,new norfolk,-42.7826,147.0587,290.77,46,81,4.3,AU,1728099127
352,vilyuchinsk,52.9306,158.4028,290.3,41,84,3.12,RU,1728099128
353,rio grande,-32.035,-52.0986,289.14,76,4,7.23,BR,1728099129
354,port lincoln,-34.7333,135.8667,290.14,55,65,10.26,AU,1728099131
355,sirre,8.3167,39.4833,289.58,79,40,1.7,ET,1728099132
356,shushtar,32.0455,48.8567,299.0,23,0,2.55,IR,1728099133
357,palikir - national government center,6.9248,158.1611,303.62,79,100,3.09,FM,1728099135
358,kiunga,-6.1219,141.2906,305.13,53,95,1.6,PG,1728099136
359,monaco,43.7314,7.419,288.63,74,0,4.63,MC,1728099137
360,mitsamiouli,-11.3847,43.2844,298.62,72,5,2.25,KM,1728099138
361,berezovyy,51.6667,135.7,291.25,48,26,2.75,RU,1728099139
362,chilchota,19.85,-102.1333,291.34,64,71,1.51,MX,1728099140
363,kerikeri,-35.2268,173.9474,290.88,85,46,4.47,NZ,1728099141
364,ad dabbah,18.05,30.95,304.08,17,12,4.58,SD,1728099142
365,kununurra,-15.7667,128.7333,310.14,36,5,2.57,AU,1728099143
366,klaksvik,62.2266,-6.589,282.24,97,100,12.1,FO,1728099144
367,constantia,44.1833,28.65,289.65,83,0,3.15,RO,1728099145
368,sassandra,4.95,-6.0833,296.45,96,100,2.61,CI,1728099146
369,ghazni,33.5536,68.4269,290.92,30,33,0.59,AF,1728099148
370,guamal,9.1433,-74.2238,297.54,98,100,1.59,CO,1728099149
371,vila do maio,15.1333,-23.2167,299.15,83,100,1.45,CV,1728099150
372,pangody,65.85,74.4859,273.0,71,9,3.06,RU,1728099151
373,st. john's,47.5649,-52.7093,283.81,93,0,5.66,CA,1728099112
374,knyaze-volkonskoye,48.4642,135.4567,292.34,45,43,5.35,RU,1728099153
375,broken hill,-31.95,141.4333,296.96,27,30,11.4,AU,1728099084
376,camana,-16.6228,-72.7111,290.32,82,64,1.57,PE,1728099155
377,labytnangi,66.6572,66.4183,272.08,74,46,2.58,RU,1728099156
378,hammerfest,70.6634,23.6821,278.4,75,20,5.14,NO,1728098996
379,colonia,50.9333,6.95,279.24,97,5,1.12,DE,1728098995
380,chokwe,-24.5333,32.9833,290.77,69,66,2.74,MZ,1728099159
381,tabou,4.423,-7.3528,297.14,92,76,3.55,CI,1728099161
382,sandpoint,48.2766,-116.5533,281.72,91,100,2.57,US,1728099162
383,mandalgovi,45.7625,106.2708,274.65,99,100,4.97,MN,1728099163
384,tulsipur,28.131,82.2973,298.57,76,22,1.46,NP,1728099164
385,rauna,57.3322,25.6067,276.0,91,0,0.37,LV,1728099165
386,tarawa,1.419,172.984,304.2,70,20,5.14,KI,1728099166
387,meulaboh,4.1363,96.1285,299.81,87,100,4.01,ID,1728099167
388,lautoka,-17.6167,177.4667,302.07,65,75,5.66,FJ,1728099168
389,cannonvale,-20.2833,148.7,297.81,55,0,3.66,AU,1728099169
390,kargasok,59.0556,80.8572,281.39,62,99,5.36,RU,1728099170
391,rio claro,-22.4114,-47.5614,289.23,81,35,5.65,BR,1728099171
392,lompoc,34.6391,-120.4579,293.53,95,100,1.54,US,1728099172
393,san luis,-33.295,-66.3356,291.77,31,0,5.5,AR,1728098950
394,bunia,1.5667,30.25,290.3,87,47,0.83,CD,1728099175
395,yankton,42.8711,-97.3973,289.88,51,0,2.57,US,1728099176
396,quimili,-27.6333,-62.4167,292.39,38,1,6.36,AR,1728099177
397,kapuskasing,49.4169,-82.4331,276.15,100,40,1.54,CA,1728099178
398,bouca,6.5105,18.2733,293.66,98,100,1.64,CF,1728099179
399,ernee,48.2976,-0.9314,278.82,90,78,2.68,FR,1728099180
400,novyye burasy,52.1324,46.0714,284.78,40,100,2.33,RU,1728099181
401,smithers,54.7804,-127.1743,278.33,100,75,1.54,CA,1728099111
402,luoyang,34.6836,112.4536,290.8,43,100,0.83,CN,1728099183
403,mazagao,-0.115,-51.2894,297.82,87,96,1.37,BR,1728099185
404,metlili chaamba,32.2667,3.6333,294.67,49,40,1.03,DZ,1728099186
405,yemel'yanovo,56.1681,92.6767,283.6,50,0,7.0,RU,1728099187
406,shihezi,44.3,86.0333,291.84,35,0,5.83,CN,1728099188
407,luganville,-15.5333,167.1667,299.61,72,29,5.75,VU,1728099189
408,brenham,30.1669,-96.3977,300.39,68,75,0.0,US,1728099190
409,farafangana,-22.8167,47.8333,292.25,70,98,2.99,MG,1728099191
410,faya-largeau,17.9257,19.1043,304.97,18,78,4.39,TD,1728099192
411,atherton,53.5237,-2.4935,283.87,89,99,0.89,GB,1728099193
412,merizo village,13.2658,144.6691,302.58,84,100,1.49,GU,1728099194
413,inirida,3.8653,-67.9239,299.51,77,98,0.26,CO,1728099195
414,reggane,26.7158,0.1714,304.82,16,22,2.89,DZ,1728099196
415,karoi,-16.8099,29.6925,283.62,63,0,2.22,ZW,1728099198
416,saint-joseph,-21.3667,55.6167,291.36,77,96,7.02,RE,1728099199
417,mwinilunga,-11.7358,24.4293,287.5,53,11,3.35,ZM,1728099200
418,alaghsas,17.0187,8.0168,302.22,46,81,3.18,NE,1728099201
419,gadzhiyevo,69.2551,33.3362,278.37,82,100,13.14,RU,1728099202
420,arawa,-6.2132,155.5367,300.37,80,100,0.81,PG,1728099203
421,sao borja,-28.6606,-56.0044,288.68,75,3,4.29,BR,1728099204
422,dauphin,51.1494,-100.0502,283.23,62,0,4.12,CA,1728099205
423,thunder bay,48.4001,-89.3168,277.14,100,0,1.54,CA,1728099172
424,bodo,67.28,14.405,278.17,87,75,3.6,NO,1728099208
425,tezu,27.9167,96.1667,295.08,99,100,1.44,IN,1728099209
426,les cayes,18.2,-73.75,298.88,83,3,2.17,HT,1728099210
427,buenaventura,3.8801,-77.0312,297.66,93,85,1.34,CO,1728099026
428,salekhard,66.53,66.6019,272.2,77,44,3.18,RU,1728099212
429,hrajel,34.0148,35.7946,288.85,33,0,1.79,LB,1728099213
430,uryupinsk,50.8047,42.0138,287.8,41,100,2.81,RU,1728099214
431,al jawf,29.5,38.75,295.6,33,0,0.93,SA,1728099215
432,n'zeto,-7.2312,12.8666,296.72,88,85,4.65,AO,1728099216
433,umluj,25.0213,37.2685,299.98,51,0,3.53,SA,1728099217
434,nkhotakota,-12.9274,34.2961,293.54,68,64,7.34,MW,1728099218
435,noyabrsk,63.1994,75.4507,273.37,77,26,4.13,RU,1728099220
436,lagdo,9.05,13.7333,295.19,96,100,1.01,CM,1728099221
437,bluefields,12.0137,-83.7635,298.93,88,4,1.21,NI,1728099222
438,yenagoa,4.9247,6.2642,296.33,97,100,1.29,NG,1728099223
439,isangel,-19.55,169.2667,301.21,54,40,5.14,VU,1728099225
440,alotau,-10.3069,150.4462,299.17,91,92,2.53,PG,1728099226
441,guerrero negro,27.9769,-114.0611,293.51,85,0,5.14,MX,1728099227
442,diamantino,-14.4086,-56.4461,300.89,48,35,0.46,BR,1728099228
443,oranjemund,-28.55,16.4333,299.07,29,100,7.28,NA,1728099229
444,tura,25.5198,90.2201,298.76,94,88,2.37,IN,1728099230
445,tillaberi,14.2117,1.4531,302.36,57,98,6.1,NE,1728099232
446,twon-brass,4.3151,6.2418,298.22,89,100,4.75,NG,1728099233
447,chipinge,-20.1883,32.6236,283.95,79,53,2.38,ZW,1728099235
448,agde,43.3108,3.4758,282.01,74,0,2.06,FR,1728099236
449,raja,8.4596,25.678,293.68,90,42,1.44,SS,1728099237
450,horta,38.5333,-28.6333,293.72,94,100,2.68,PT,1728099238
451,monchegorsk,67.9397,32.8739,275.2,98,100,4.32,RU,1728099239
452,saint croix,17.7397,-64.7388,299.79,86,40,1.54,VI,1728099240
453,glace bay,46.1969,-59.957,284.9,97,100,1.54,CA,1728099241
454,penhalonga,-18.8911,32.6978,281.47,91,30,1.84,ZW,1728099242
455,abyek,36.0667,50.55,286.93,57,0,1.17,IR,1728099243
456,edgewater,28.9889,-80.9023,300.93,73,15,3.01,US,1728099246
457,karratha,-20.7377,116.8463,303.38,37,2,5.04,AU,1728099247
458,churapcha,62.0025,132.4325,274.7,97,100,1.86,RU,1728099249
459,vuktyl,63.8567,57.3094,275.71,75,100,3.8,RU,1728099250
460,antipolo,14.5864,121.1753,304.21,75,75,2.06,PH,1728099251
461,nizhnesortymskiy,62.4397,71.7603,275.04,75,57,4.71,RU,1728099252
462,borogontsy,62.6683,131.1683,274.76,96,100,0.97,RU,1728099254
463,qala i naw,34.9874,63.1289,290.91,48,82,1.63,AF,1728099255
464,ust'-charyshskaya pristan',52.3934,83.6635,283.71,46,67,1.87,RU,1728099256
465,piacabucu,-10.4056,-36.4344,296.73,85,22,4.05,BR,1728099009
466,breves,-1.6822,-50.4803,297.25,88,61,2.53,BR,1728099259
467,harsud,22.1,76.7333,300.58,74,4,1.73,IN,1728099261
468,tupa,-21.9347,-50.5136,289.41,76,6,6.86,BR,1728099262
469,san clemente,33.427,-117.612,292.45,93,26,0.45,US,1728099263
470,mikuni,36.2171,136.1519,295.32,70,75,6.57,JP,1728099265
471,le vauclin,14.5452,-60.8388,297.18,94,0,2.06,MQ,1728099266
472,morondava,-20.2833,44.2833,294.87,47,13,6.68,MG,1728099267
473,malindi,-3.2175,40.1191,298.24,83,75,1.54,KE,1728099268
474,tocache,-8.1842,-76.5125,294.21,99,100,0.15,PE,1728099269
475,hobyo,5.3505,48.5268,299.01,77,20,9.17,SO,1728099270
476,chifeng,42.2683,118.9636,292.1,46,0,2.01,CN,1728099271
477,howrah,22.5892,88.3103,301.15,89,100,2.06,IN,1728099272
478,farsan,32.2569,50.561,274.17,23,0,1.16,IR,1728099273
479,tsiombe,-25.3,45.4833,292.25,62,99,4.73,MG,1728099274
480,severo-yeniseyskiy,60.3725,93.0408,275.54,96,100,5.71,RU,1728099275
481,anloga,5.7947,0.8973,298.41,86,100,7.0,GH,1728099277
482,dakhla,23.6848,-15.958,294.11,82,100,6.73,EH,1728099278
483,knysna,-34.0363,23.0471,294.1,39,1,3.14,ZA,1728099279
484,kamaishi,39.2667,141.8833,294.67,61,88,2.2,JP,1728099280
485,howard springs,-12.497,131.047,306.1,58,8,1.69,AU,1728099281
486,dunedin,-45.8742,170.5036,284.71,98,99,2.24,NZ,1728099122
487,revda,56.801,59.9303,278.55,59,80,1.26,RU,1728099283
488,bakanas,44.8081,76.2772,291.41,26,9,4.36,KZ,1728099284
489,teknaf,20.8624,92.3058,301.54,79,82,4.75,BD,1728099285
490,fort scott,37.8398,-94.7083,298.12,52,0,3.72,US,1728099224
491,cinco saltos,-38.8222,-68.0629,288.0,31,0,5.66,AR,1728099287
492,ulladulla,-35.35,150.4667,296.52,36,56,6.02,AU,1728099288
493,karkkila,60.5342,24.2098,278.15,92,85,1.57,FI,1728099290
494,okha,53.5739,142.9478,283.63,70,100,6.7,RU,1728099291
495,changqing,36.5575,116.7272,296.28,36,27,3.15,CN,1728099292
496,mlowo,-9.0,32.9833,284.99,88,26,1.53,TZ,1728099293
497,kiffa,16.6166,-11.4045,305.83,44,45,4.64,MR,1728099294
498,kingisepp,59.3733,28.6134,277.75,98,43,1.86,RU,1728099295
499,tvoroyri,61.5556,-6.8111,283.49,99,100,7.58,FO,1728099296
500,kalinagar,28.6167,80.1,301.43,71,0,2.86,IN,1728099297
501,montelibano,7.9829,-75.4229,297.67,93,100,1.68,CO,1728099298
502,sorong,-0.8833,131.25,300.48,81,100,1.95,ID,1728099299
503,nikolayevsk-on-amure,53.1406,140.73,287.7,59,100,2.06,RU,1728099300
504,igrim,63.1906,64.4162,276.14,86,100,2.01,RU,1728099302
505,huntley,42.1681,-88.4281,285.36,84,0,0.89,US,1728099303
506,usinsk,65.9939,57.5281,272.87,82,100,4.18,RU,1728099304
507,huarmey,-10.0681,-78.1522,291.5,83,100,1.76,PE,1728099305
508,sur,22.5667,59.5289,305.98,44,9,3.05,OM,1728099306
509,acarau,-2.8856,-40.12,298.45,79,2,6.95,BR,1728099182
510,gazojak,41.1875,61.4036,293.44,50,63,4.0,TM,1728099308
511,kavaratti,10.5669,72.642,300.94,78,90,2.03,IN,1728099309
512,crucecita,-28.95,-58.9833,286.34,77,0,2.29,AR,1728099310
513,island harbour,50.724,-1.2758,287.03,57,91,2.24,GB,1728099311
514,brigantine,39.4101,-74.3646,293.16,91,100,2.24,US,1728099293
515,tbeng meanchey,13.8167,104.9667,304.74,64,45,0.79,KH,1728099314
516,acapulco de juarez,16.8634,-99.8901,300.05,83,100,2.57,MX,1728099315
517,shenjiamen,29.9576,122.298,296.5,86,100,8.85,CN,1728099316
518,vadso,70.0744,29.7487,276.24,87,40,3.6,NO,1728099317
519,aksu,41.1231,80.2644,292.36,31,98,3.86,CN,1728099318
520,saudarkrokur,65.7461,-19.6394,274.3,61,1,1.25,IS,1728099319
521,huayin,34.5675,110.0921,295.27,40,94,1.48,CN,1728099320
522,selfoss,63.9331,-20.9971,274.44,59,20,5.66,IS,1728099321
523,burutu,5.3509,5.5076,297.4,92,100,2.38,NG,1728099322
524,bandon,51.7469,-8.7425,287.92,96,100,9.17,IE,1728099323
525,yakutsk,62.0339,129.7331,276.13,87,75,3.0,RU,1728099324
526,constitucion,-35.3333,-72.4167,283.21,74,60,4.21,CL,1728099079
527,apatity,67.5641,33.4031,274.97,99,100,4.74,RU,1728099327
528,gannan,47.9147,123.5031,289.28,30,75,6.18,CN,1728099328
529,shingu,33.7333,135.9833,296.0,90,100,1.16,JP,1728099329
530,mayya,61.7333,130.2811,275.16,98,100,1.66,RU,1728099330
531,barreiras,-12.1528,-44.99,297.02,24,8,1.46,BR,1728099331
532,timbuktu,16.7735,-3.0074,304.77,37,76,3.53,ML,1728099332
533,ypsonas,34.6884,32.9574,292.69,68,0,2.06,CY,1728099333
534,sodra sandby,56.5667,16.6167,272.07,88,12,2.08,SE,1728099334
535,dubbo,-32.25,148.6167,297.22,35,20,7.2,AU,1728099335
536,xilin hot,43.9667,116.0333,284.74,46,56,5.18,CN,1728099336
537,dadu,26.7329,67.7763,305.61,51,0,1.72,PK,1728099338
538,shouguang,36.88,118.7375,296.07,33,62,2.13,CN,1728099339
539,nova vicosa,-17.8919,-39.3719,296.01,89,3,1.53,BR,1728099340
540,kirakira,-10.4544,161.9205,301.87,75,42,5.01,SB,1728099341
541,grantsville,40.5999,-112.4644,295.17,24,0,3.6,US,1728099342
542,iquique,-20.2208,-70.1431,292.01,59,17,1.46,CL,1728099321
543,paracuru,-3.41,-39.0306,298.59,74,3,5.93,BR,1728099344
544,raton,36.9034,-104.4391,288.49,44,0,3.09,US,1728099345
545,umm kaddadah,13.6017,26.6876,302.22,48,99,2.36,SD,1728099346
546,manismata,-2.4667,111.0333,303.27,61,94,1.55,ID,1728099347
547,tokombere,11.2271,13.4858,295.69,91,99,2.01,NG,1728099348
548,shush,32.1942,48.2436,299.24,24,0,1.65,IR,1728099350
549,sidi slimane,34.2648,-5.926,292.73,97,41,1.31,MA,1728099307
550,mugia,43.1041,-9.2179,292.54,98,100,7.59,ES,1728099352
551,buritizeiro,-17.3511,-44.9622,299.54,46,19,2.57,BR,1728099353
552,princeville,45.7668,-61.2985,286.1,95,100,2.57,CA,1728099354
553,scottburgh,-30.2867,30.7532,288.14,69,0,3.39,ZA,1728099356
554,el gouna,27.3942,33.6782,297.2,71,0,7.91,EG,1728099357
555,hadithah,34.1397,42.3781,297.16,34,0,4.44,IQ,1728099358
556,k'olito,7.3167,38.0833,289.31,89,94,1.03,ET,1728099359
557,ellsworth,44.5434,-68.4195,288.09,95,100,1.58,US,1728099360
558,toulepleu guere,6.574,-8.4259,295.21,99,98,1.45,CI,1728099363
559,asosa,10.0667,34.5333,288.59,90,66,2.25,ET,1728099364
560,humberto de campos,-2.5983,-43.4611,297.79,84,12,2.1,BR,1728099365
561,valdivia,-39.8142,-73.2459,280.2,96,72,1.4,CL,1728099366
562,okhotsk,59.3833,143.3,280.41,47,70,4.56,RU,1728099367
563,palmer,42.1584,-72.3287,288.44,86,20,2.57,US,1728099368
564,tucuma,-0.1833,-50.05,299.85,78,86,4.78,BR,1728099369
565,wattegama,6.7989,81.4808,305.19,49,90,2.2,LK,1728099370
566,tres passos,-27.4556,-53.9319,287.96,79,0,3.79,BR,1728099371
567,etinan,4.8426,7.8525,295.85,98,100,0.32,NG,1728099372
568,isetskoye,56.4858,65.3226,280.58,52,37,2.63,RU,1728099373
569,kara-balta,42.8142,73.8481,293.53,27,100,1.88,KG,1728099374
570,haiku-pauwela,20.9219,-156.3051,300.16,72,20,8.49,US,1728099376
571,byron bay,-28.65,153.6167,299.81,51,40,6.93,AU,1728099377
572,zheleznodorozhnyy,55.7503,38.0042,282.9,87,100,2.44,RU,1728099378
573,shiqian,27.5225,108.2281,294.37,45,100,1.27,CN,1728099379
574,sarangani,5.4033,125.4636,301.47,74,100,4.08,PH,1728099380
575,fale old settlement,-9.3852,-171.2468,300.74,78,65,5.5,TK,1728099381
